Cities,Lat,Lng,Names,users_id,tasks_id
Egvekinot,66.32161734695794,-179.12367090601367,Vision Alpha Contract Agency,0,0
Egvekinot,66.32290694112683,-179.12131172531525,Electronic Network Incorporated,1,1
Egvekinot,66.31945857912335,-179.1229065821668,Telecom Direct Digital Group,2,2
Egvekinot,66.3208084630361,-179.12058193986167,Application Research Co,3,3
Egvekinot,66.32085439610572,-179.12307365870896,Provider Vision Digital Organization,4,4
Egvekinot,66.3224290583355,-179.12407880223952,Advanced Electronic Inc,5,5
Egvekinot,66.31978287522415,-179.12101793032355,Electronic Inc,6,6
Egvekinot,66.31962969001476,-179.12262524125168,Solutions South Telecom International,7,7
Egvekinot,66.31940520431752,-179.12199596407078,Net Agency,8,8
Egvekinot,66.32156764863755,-179.11996872659344,Hill Corporation,9,9
Egvekinot,66.32397798433823,-179.12137249771195,Provider Net Limited,10,10
Egvekinot,66.32232630568458,-179.12334782679284,Universal Direct Innovation Limited,11,11
Egvekinot,66.32011086058942,-179.12052092167573,Galaxy Signal Systems Inc,12,12
Egvekinot,66.31980223722351,-179.12132084396825,General Technology Inc,13,13
Egvekinot,66.31991697803173,-179.1217374379254,Bell Building International,14,14
Egvekinot,66.32215674486022,-179.12191887879993,Speed Electronic Industries,15,15
Egvekinot,66.31976557057314,-179.1208055357334,Internet Digital Limited,16,16
Egvekinot,66.32160973118893,-179.12355588590532,Vision Network Limited,17,17
Egvekinot,66.32090388212364,-179.1209505078538,Research Omega Analysis International,18,18
Egvekinot,66.32007616547095,-179.1223262531128,Studio Industries,19,19
Egvekinot,66.32024367380684,-179.12005437292996,Adventure Pacific Net LLC,20,20
Egvekinot,66.32104059367435,-179.12265149468405,Omega Signal Incorporated,21,21
Egvekinot,66.3225694280477,-179.12107990917588,Max Bell Electronic Agency,22,22
Egvekinot,66.32397571026841,-179.12167223207726,Medicine Frontier Incorporated,23,23
Egvekinot,66.32054792628158,-179.12345175504612,Studio Electronic Group,24,24
Egvekinot,66.32055958843029,-179.12202539973103,Vision Incorporated,25,25
Egvekinot,66.32068174456084,-179.12281258186187,Omega Industries Corporation,26,26
Egvekinot,66.32093583783355,-179.11989446521545,Innovation Speed Limited,27,27
Egvekinot,66.322585062994,-179.12210648999616,Technology Agency,28,28
Egvekinot,66.32344570010704,-179.12206615739768,West Technology Solutions Agency,29,29
Egvekinot,66.32230931161473,-179.121343890652,Application Source Industries,30,30
Egvekinot,66.3203813206321,-179.1235040721734,Architecture Technology Hill Corporation,31,31
Egvekinot,66.32162343166839,-179.12292234028976,General Agency,32,32
Egvekinot,66.32227996946888,-179.12049084562315,Technology Power Star Limited,33,33
Egvekinot,66.32256567556968,-179.12282139458713,Data Building Inc,34,34
Egvekinot,66.32065060906481,-179.1226415685559,Technology Star Interactive LLC,35,35
Egvekinot,66.3209809366889,-179.1203341535971,Contract Federated Inc,36,36
Egvekinot,66.32178496261542,-179.12170672082402,Solutions Organization,37,37
Egvekinot,66.32393792683344,-179.12127888938952,Max Interactive Agency,38,38
Egvekinot,66.3217814489552,-179.12258624500475,Application General Data Organization,39,39
Egvekinot,66.32125309729592,-179.12085108079378,Innovation Electronic Co,40,40
Egvekinot,66.32174348972205,-179.1228589879478,Innovation Star Industries,41,41
Egvekinot,66.32377402942505,-179.1218602568348,Hill Application Analysis Corporation,42,42
Egvekinot,66.3211625026459,-179.1235425054294,Network Graphics Corporation,43,43
Egvekinot,66.32243458866529,-179.1223033105435,Data Network International,44,44
Egvekinot,66.32312567224065,-179.12347028174733,Hardware International,45,45
Egvekinot,66.32272823143624,-179.12089710244496,Analysis Solutions Vision International,46,46
Egvekinot,66.32237405140812,-179.12397520075146,Net North Industries,47,47
Egvekinot,66.31969625584749,-179.12209863692382,Design Software Network Corporation,48,48
Egvekinot,66.32062452257597,-179.12320597350114,Software Federated Contract Industries,49,49
Egvekinot,66.31987835756186,-179.1207743479183,Solutions Hill Network Agency,50,50
Egvekinot,66.32049944959664,-179.1229870107567,People Contract Inc,51,51
Egvekinot,66.32061279579354,-179.12078922091206,West Contract Agency,52,52
Egvekinot,66.32105427477137,-179.1231480195425,Hill Universal Limited,53,53
Egvekinot,66.32183867462231,-179.12378177283915,Speed Corporation,54,54
Egvekinot,66.32011002576999,-179.12053066294675,Atlantic South Alpha Industries,55,55
Egvekinot,66.32087846797512,-179.1239593922785,Research Max Galaxy Industries,56,56
Egvekinot,66.32142540001252,-179.12289805581466,Graphics Inc,57,57
Egvekinot,66.3231087773325,-179.12109778603454,Innovation Max Pacific Incorporated,58,58
Egvekinot,66.32321963943758,-179.12079641723713,Net LLC,59,59
Egvekinot,66.32071099948966,-179.12347955991206,Atlantic Digital Co,60,60
Egvekinot,66.32334583725013,-179.12247748673812,Galaxy Studio Inc,61,61
Egvekinot,66.32224265008452,-179.12048330480417,Analysis International,62,62
Egvekinot,66.31997825217422,-179.12169702492812,Source Agency,63,63
Egvekinot,66.31997994256972,-179.12039298423397,Construction Research Incorporated,64,64
Egvekinot,66.32216120195564,-179.1213338216834,Virtual Co,65,65
Egvekinot,66.32056875574757,-179.1202253541286,Galaxy Digital Agency,66,66
Egvekinot,66.32182162718752,-179.12380185116936,Interactive Industries,67,67
Egvekinot,66.32244552715215,-179.12414026129454,Galaxy Future International,68,68
Egvekinot,66.32252813503477,-179.1204278763483,Galaxy Agency,69,69
Egvekinot,66.32318809067358,-179.12313786410735,Network Alpha Limited,70,70
Egvekinot,66.32162171693602,-179.12133343641227,Virtual Universal Industries,71,71
Egvekinot,66.3223887704278,-179.12370673512848,Vision Electronic Limited,72,72
Egvekinot,66.32155843163896,-179.1237870039292,Venture Signal Limited,73,73
Egvekinot,66.32323603329822,-179.12204068061473,Direct Limited,74,74
Egvekinot,66.32385867825907,-179.12105929800217,Star Corporation,75,75
Egvekinot,66.3223063966223,-179.12394738123376,Power Digital Agency,76,76
Egvekinot,66.31967706542584,-179.1232002867003,Innovation Application Power Co,77,77
Egvekinot,66.32260526078946,-179.11998886180203,South Group,78,78
Egvekinot,66.32229270212966,-179.11969397468627,South Virtual Federated Industries,79,79
Egvekinot,66.32183636386273,-179.11986645591676,Analysis Source Research Incorporated,80,80
Egvekinot,66.3199463794836,-179.12078881823317,Star Medicine Frontier Co,81,81
Egvekinot,66.32098954103904,-179.12328185961974,Technology Organization,82,82
Egvekinot,66.3217705675136,-179.12131847990844,Omega Limited,83,83
Egvekinot,66.32292281561627,-179.1234370800647,Hardware Telecom Provider Incorporated,84,84
Egvekinot,66.32149797163487,-179.12305740387356,Internet Industries,85,85
Egvekinot,66.32092537749544,-179.1215742561704,Adventure Corporation,86,86
Egvekinot,66.32122061347991,-179.12350824708022,Vision Venture Hardware Agency,87,87
Egvekinot,66.32325889717018,-179.12265246287345,Analysis Inc,88,88
Egvekinot,66.32350303710564,-179.12146121335678,Star Interactive Organization,89,89
Egvekinot,66.3229818817712,-179.12167412786474,Galaxy Universal Corporation,90,90
Egvekinot,66.3215118285127,-179.1211507556116,Research Star Incorporated,91,91
Egvekinot,66.32342775618703,-179.12090761063754,Source Future Frontier Inc,92,92
Egvekinot,66.32185823134357,-179.12339877587522,Universal Industries,93,93
Egvekinot,66.32102416889073,-179.12094685758248,Future Corporation,94,94
Egvekinot,66.32277196214825,-179.12162155414254,Electronic Signal Limited,95,95
Egvekinot,66.32002998513343,-179.1236766662202,West Industries,96,96
Egvekinot,66.32122776387655,-179.12103904655862,Construction Agency,97,97
Egvekinot,66.32034346500032,-179.1237093646341,Virtual Innovation Hardware Group,98,98
Egvekinot,66.32289025474199,-179.12103898060312,Speed Future Corporation,0,99
Egvekinot,66.31975991740525,-179.12261029681127,Speed Inc,1,100
Egvekinot,66.31989370515818,-179.1214350302501,Frontier Corporation,2,101
Egvekinot,66.32127838590644,-179.12081188957683,Provider Corporation,3,102
Egvekinot,66.3217289288941,-179.12205766641094,Consulting Internet Group,4,103
Egvekinot,66.32162059526901,-179.1207522318727,Net Graphics Incorporated,5,104
Egvekinot,66.32053608489483,-179.12032147025627,Solutions Max Limited,6,105
Egvekinot,66.32120138906086,-179.12297918482918,Hill Contract Building Co,7,106
Egvekinot,66.32323019337007,-179.12320162726613,Innovation Frontier Inc,8,107
Egvekinot,66.32120458076389,-179.12058812208443,Telecom North East Limited,9,108
Egvekinot,66.32272849843386,-179.1234009368128,Signal Inc,10,109
Egvekinot,66.32204474372878,-179.12380493157184,Contract Group,11,110
Egvekinot,66.32183897168697,-179.12064728234589,Max Universal Vision Limited,12,111
Egvekinot,66.32134033095805,-179.12188300059495,Galaxy Technology Data Limited,13,112
Egvekinot,66.3213794715954,-179.12108846322988,Contract International,14,113
Egvekinot,66.32209896375247,-179.12174869943428,West Pacific LLC,15,114
Egvekinot,66.31992917460916,-179.12202507770752,Power Pacific Limited,16,115
Egvekinot,66.32072954788195,-179.12106862651663,Software Architecture Co,17,116
Egvekinot,66.32206194299552,-179.12115668519027,Construction Pacific Network Incorporated,18,117
Egvekinot,66.32139364898694,-179.12156180028975,Research Innovation Inc,19,118
Egvekinot,66.32248822464211,-179.1215348737891,Resource LLC,20,119
Egvekinot,66.32292616460177,-179.12286602569205,Star Omega Organization,21,120
Egvekinot,66.32112001453538,-179.1229673736206,Frontier Solutions Incorporated,22,121
Egvekinot,66.32151794709954,-179.1207506254837,Adventure Studio Source Organization,23,122
Egvekinot,66.32186795874921,-179.12323292376013,Adventure General LLC,24,123
Egvekinot,66.31942664980193,-179.12177480108463,Vision General Galaxy Agency,25,124
Egvekinot,66.32111707703889,-179.12380196885323,Telecom Provider Industries Co,26,125
Egvekinot,66.32272960522602,-179.1210033026222,Technology Virtual Incorporated,27,126
Egvekinot,66.32262664996428,-179.12349272123515,General Adventure Source Limited,28,127
Egvekinot,66.32267589275824,-179.1229244446407,Future Corporation,29,128
Egvekinot,66.32330296955995,-179.1211274440763,Digital Studio Incorporated,30,129
Egvekinot,66.3194139448551,-179.12130705782758,Studio Incorporated,31,130
Egvekinot,66.32338716525766,-179.1230681575112,Provider Digital Pacific Industries,32,131
Egvekinot,66.32137762701682,-179.12235310236503,Hill Galaxy Consulting Corporation,33,132
Egvekinot,66.32183257311837,-179.1200503375506,Internet Virtual North Co,34,133
Egvekinot,66.32202440465716,-179.12284193904978,Application Incorporated,35,134
Egvekinot,66.32299691815665,-179.12027735285648,Hardware Application Graphics Agency,36,135
Egvekinot,66.32049301275225,-179.12198712496382,Future Incorporated,37,136
Egvekinot,66.32145724417904,-179.12104921317757,People International,38,137
Egvekinot,66.32218529556411,-179.12298567177749,Solutions Agency,39,138
Egvekinot,66.3223365328799,-179.12011818713376,West Power Advanced Industries,40,139
Egvekinot,66.32034032775313,-179.12295084305535,Net Advanced LLC,41,140
Egvekinot,66.32150521653976,-179.1200478871017,Venture Federated Consulting Limited,42,141
Egvekinot,66.32064698375262,-179.12197205105267,Architecture Star Resource Limited,43,142
Egvekinot,66.32110576707504,-179.12226235620756,Federated Net Venture Agency,44,143
Egvekinot,66.32223959559657,-179.1217814144515,Atlantic Resource Virtual International,45,144
Egvekinot,66.32337531482725,-179.1228552135879,Industries Max Limited,46,145
Egvekinot,66.32020073361404,-179.12323403135403,Net Incorporated,47,146
Egvekinot,66.32288053077603,-179.12280259710087,South Provider Organization,48,147
Egvekinot,66.3212737616202,-179.12084887208357,Network East Inc,49,148
Egvekinot,66.32274441731228,-179.12081974768967,Construction Co,50,149
Egvekinot,66.32035167828631,-179.12351551429973,Network Organization,51,150
Egvekinot,66.32003786382187,-179.12175273026685,Resource Research Organization,52,151
Egvekinot,66.3200757243341,-179.12057669236452,Adventure North Limited,53,152
Egvekinot,66.32184033898943,-179.12171582609514,Studio Network Industries,54,153
Egvekinot,66.32372979642196,-179.12240822243967,Hill Corporation,55,154
Egvekinot,66.32133369813478,-179.1196870159293,Provider Galaxy Limited,56,155
Egvekinot,66.31956970102539,-179.12105493805555,People Agency,57,156
Egvekinot,66.3206965333504,-179.12030726292497,Architecture Graphics Group,58,157
Egvekinot,66.32036727413146,-179.12074924249774,Venture Group,59,158
Egvekinot,66.32136414142701,-179.1239503282855,Net Bell Solutions Agency,60,159
Egvekinot,66.32179912567248,-179.12140644133734,Application Software Provider Incorporated,61,160
Egvekinot,66.32181540244656,-179.12027871058183,Universal East Corporation,62,161
Egvekinot,66.32123113243458,-179.1205712026592,Direct Research Co,63,162
Egvekinot,66.32331488581418,-179.12177776673772,North Speed Atlantic Incorporated,64,163
Egvekinot,66.32344822869563,-179.12174206483994,Studio Industries,65,164
Egvekinot,66.32339325376434,-179.1203939039848,Source Co,66,165
Egvekinot,66.31975846761415,-179.12207896048682,Alpha People Agency,67,166
Egvekinot,66.31951266268021,-179.12146103830415,Atlantic Studio Technology Industries,68,167
Egvekinot,66.3223394647361,-179.12051114236695,Interactive Corporation,69,168
Egvekinot,66.32145745766348,-179.12177400459754,People Innovation Incorporated,70,169
Egvekinot,66.3208812541585,-179.12331397412183,Galaxy Consulting Frontier Incorporated,71,170
Egvekinot,66.32009863188242,-179.1208180810581,Digital Direct Industries,72,171
Egvekinot,66.3211227043037,-179.12345879584308,Vision Group,73,172
Egvekinot,66.32097882421449,-179.1197985854073,East Atlantic Analysis Corporation,74,173
Egvekinot,66.31954548226096,-179.1211539478679,Analysis LLC,75,174
Egvekinot,66.32291715925372,-179.12288396978207,Solutions Design Incorporated,76,175
Egvekinot,66.32239800928451,-179.1229015080734,Max Agency,77,176
Egvekinot,66.32106568438009,-179.1197319427485,Federated Design Advanced Inc,78,177
Egvekinot,66.31995865546322,-179.12217621782167,Graphics Frontier Source Industries,79,178
Egvekinot,66.3203334540552,-179.12236978774308,Adventure Limited,80,179
Egvekinot,66.32000925132617,-179.1213383736515,Systems Organization,81,180
Egvekinot,66.32357751850527,-179.12205451658602,General Virtual LLC,82,181
Egvekinot,66.32251113502292,-179.12302447335261,Speed Contract West Group,83,182
Egvekinot,66.31995181947582,-179.1227544046955,Adventure Atlantic International,84,183
Egvekinot,66.3227267192745,-179.1236730893434,Power Galaxy Future Industries,85,184
Egvekinot,66.32165818796592,-179.11979238213308,West LLC,86,185
Egvekinot,66.3219044296546,-179.1208058026321,Signal Vision Virtual Incorporated,87,186
Egvekinot,66.32020804243247,-179.123612809616,Design Internet Vision Corporation,88,187
Egvekinot,66.32099586836281,-179.12052816848976,Medicine Atlantic East Agency,89,188
Egvekinot,66.3227364708365,-179.12316897289602,People Max International,90,189
Egvekinot,66.32198875907802,-179.1203559962681,People LLC,91,190
Egvekinot,66.32162363922596,-179.12147897652258,Solutions Frontier General Organization,92,191
Egvekinot,66.32100153244807,-179.11968479377154,Direct LLC,93,192
Egvekinot,66.32330008963281,-179.12204324149744,East Max Net Limited,94,193
Egvekinot,66.32055456869298,-179.12227791954678,Hill Max People Group,95,194
Egvekinot,66.3211145695309,-179.1204619221046,Hill Universal Inc,96,195
Egvekinot,66.32227873482678,-179.1211992556433,Electronics General North Inc,97,196
Egvekinot,66.32045639334645,-179.12384034328107,Vision Signal South Limited,98,197
Egvekinot,66.32036211360719,-179.1237090546721,General Construction Industries,0,198
Egvekinot,66.3215764663334,-179.12128400092377,Hardware Interactive Inc,1,199
Egvekinot,66.32148669418714,-179.12365478653695,Provider Organization,2,200
Egvekinot,66.31994087336996,-179.12358308413687,Architecture Pacific Organization,3,201
Egvekinot,66.32079506896041,-179.12235291706529,Source Analysis Limited,4,202
Egvekinot,66.32129580928097,-179.12060474107093,Vision Galaxy Incorporated,5,203
Egvekinot,66.3221340630938,-179.1227259169964,Design Studio Incorporated,6,204
Egvekinot,66.3205808920139,-179.12076691626257,Construction Agency,7,205
Egvekinot,66.32191363214389,-179.12162851083838,Atlantic Incorporated,8,206
Egvekinot,66.32299244658606,-179.12289717829503,Speed Direct East Incorporated,9,207
Egvekinot,66.3227226302752,-179.12280998076102,Pacific Co,10,208
Egvekinot,66.3231870233581,-179.1237119687319,Venture Adventure South Limited,11,209
Egvekinot,66.32352643971976,-179.1208115040571,Alpha Network Net Inc,12,210
Egvekinot,66.32063372876661,-179.1227879398823,Galaxy Star Organization,13,211
Egvekinot,66.32386263645282,-179.12169418577835,Net Signal People Co,14,212
Egvekinot,66.32377743670816,-179.12287995487736,Contract Universal Industries,15,213
Egvekinot,66.32386111929551,-179.12175243838203,Digital Group,16,214
Egvekinot,66.32387841581915,-179.12114616066904,Power Future Limited,17,215
Egvekinot,66.32019352030024,-179.12185037391467,Application Omega Agency,18,216
Egvekinot,66.32206009975992,-179.1230873241646,Electronic Design Organization,19,217
Egvekinot,66.32185939568438,-179.12315248523112,North Hill Omega International,20,218
Egvekinot,66.32222580286658,-179.1204616035898,Software Net Co,21,219
Egvekinot,66.32291705402437,-179.12334724689313,Electronic Telecom General International,22,220
Egvekinot,66.3232338213756,-179.1201838623775,Design Inc,23,221
Egvekinot,66.3222003494329,-179.11999142760334,Electronic Solutions Star Co,24,222
Egvekinot,66.32237741924132,-179.12089203996663,Bell Technology Future Organization,25,223
Egvekinot,66.32118351451523,-179.12292269275522,Power Systems Frontier Agency,26,224
Egvekinot,66.32089287552151,-179.12057270943757,Federated Adventure Inc,27,225
Egvekinot,66.32239481423039,-179.1199007897747,Solutions Incorporated,28,226
Egvekinot,66.32161648587095,-179.1200727237433,Resource Hardware Software LLC,29,227
Egvekinot,66.32179919346244,-179.12051731276713,Research Internet Electronics Group,30,228
Egvekinot,66.32359515525974,-179.12245537370126,Software Resource Analysis LLC,31,229
Egvekinot,66.32199452088041,-179.1225188242772,Interactive Vision Inc,32,230
Egvekinot,66.32174510617062,-179.12009580887923,Studio Agency,33,231
Egvekinot,66.32230586550986,-179.11982423242625,North Incorporated,34,232
Egvekinot,66.32007531352619,-179.12087790120833,Analysis Galaxy Bell Incorporated,35,233
Egvekinot,66.32241510111865,-179.12208694789592,Innovation Co,36,234
Egvekinot,66.32015019340511,-179.12277660862583,Graphics General Corporation,37,235
Egvekinot,66.32251971465436,-179.11976978926626,Electronics Studio Co,38,236
Egvekinot,66.32363338309258,-179.1221844167709,Net Advanced Design Group,39,237
Egvekinot,66.32336130074292,-179.12031360142464,Electronics Vision Studio Limited,40,238
Egvekinot,66.3223260570141,-179.1240915540737,Max Group,41,239
Egvekinot,66.32260616146435,-179.12233957096137,Software Solutions Group,42,240
Egvekinot,66.32202564659289,-179.11968843293621,Advanced Systems People Group,43,241
Egvekinot,66.32155089663304,-179.1230926068325,East Industries,44,242
Egvekinot,66.32369471640004,-179.12268320404095,Studio Contract Group,45,243
Egvekinot,66.32050316969638,-179.121456525782,Contract Net Advanced Co,46,244
Egvekinot,66.32157860725874,-179.11966110593823,Galaxy Co,47,245
Egvekinot,66.32361700242019,-179.12126542228037,Universal Contract Inc,48,246
Egvekinot,66.32312591564448,-179.12204563938573,Vision Star Inc,49,247
Egvekinot,66.32081679823762,-179.12299689821768,Software Inc,50,248
Egvekinot,66.32220812165288,-179.11977179298242,Advanced Internet Net International,51,249
Egvekinot,66.32374151522724,-179.1208526686343,Alpha Incorporated,52,250
Egvekinot,66.3213216388817,-179.12225925943636,Net Systems Design Inc,53,251
Egvekinot,66.32104956459271,-179.12335595749053,Digital Corporation,54,252
Egvekinot,66.32041389535672,-179.12140245044063,Systems Graphics Limited,55,253
Egvekinot,66.32306600082518,-179.12107033705996,North Corporation,56,254
Egvekinot,66.32102841447757,-179.12066807026508,Advanced Corporation,57,255
Egvekinot,66.32348269358228,-179.12352795826166,Design Software Co,58,256
Egvekinot,66.32274047881099,-179.12217111600435,General Limited,59,257
Egvekinot,66.3217721703096,-179.12065413088754,Star Net LLC,60,258
Egvekinot,66.32355137879306,-179.12338185901461,Frontier Vision Direct Incorporated,61,259
Egvekinot,66.32259032457216,-179.1220899129673,Hardware Galaxy East Industries,62,260
Egvekinot,66.32108053039153,-179.12222198866644,Star Universal Group,63,261
Egvekinot,66.31931000351442,-179.12236935760095,Design Architecture Organization,64,262
Egvekinot,66.3210249113474,-179.11995105973216,Software Future LLC,65,263
Egvekinot,66.3211569853333,-179.12371313808333,Vision Graphics Consulting Corporation,66,264
Egvekinot,66.32336995031797,-179.12297741286855,Innovation Star Consulting Agency,67,265
Egvekinot,66.31978790848262,-179.12344506091793,Telecom General Software International,68,266
Egvekinot,66.32111888394682,-179.1211207258951,Software Inc,69,267
Egvekinot,66.31989705408017,-179.12233073500417,Technology Provider Hardware Co,70,268
Egvekinot,66.32283671285764,-179.12245816152821,Internet Omega Analysis Co,71,269
Egvekinot,66.32214860733038,-179.12424942658365,Analysis Galaxy Group,72,270
Egvekinot,66.31949855612245,-179.1209884842906,Power Adventure Corporation,73,271
Egvekinot,66.3212914436332,-179.12170821220215,Hill West Agency,74,272
Egvekinot,66.32266082941923,-179.12127368147685,Power Advanced Consulting Industries,75,273
Egvekinot,66.32266209120756,-179.12127410582892,Studio Limited,76,274
Egvekinot,66.32138419494608,-179.12145915467764,Internet Limited,77,275
Egvekinot,66.3230956466541,-179.12197770191472,Analysis Vision Atlantic Limited,78,276
Egvekinot,66.32207302417898,-179.119871141588,Digital Limited,79,277
Egvekinot,66.31986965203414,-179.12087747657904,Vision Resource People LLC,80,278
Egvekinot,66.32135207772794,-179.12279967153518,Systems Research Group,81,279
Egvekinot,66.32099734442178,-179.12095554165379,Provider Vision Construction Inc,82,280
Egvekinot,66.32354819056945,-179.12343847141838,East West Net Limited,83,281
Egvekinot,66.3210262723111,-179.1223518542215,Technology Industries Inc,84,282
Egvekinot,66.32312559595333,-179.12140932569892,West Software Future Group,85,283
Egvekinot,66.32028303968976,-179.12213025905828,West International,86,284
Egvekinot,66.32125597908976,-179.12201422729424,General Graphics Architecture Agency,87,285
Egvekinot,66.32143606107384,-179.12307661477035,Hardware Source Data Corporation,88,286
Egvekinot,66.32212187053871,-179.12205394272164,Solutions Omega International,89,287
Egvekinot,66.32272295233565,-179.12402276019586,Contract Telecom Incorporated,90,288
Egvekinot,66.32251225244782,-179.12254326466237,Advanced Incorporated,91,289
Egvekinot,66.32027002771468,-179.12337304409039,Signal Hill Incorporated,92,290
Egvekinot,66.32288358465819,-179.12064800381944,Consulting Future International,93,291
Egvekinot,66.32275551276935,-179.12150453366996,Architecture Corporation,94,292
Egvekinot,66.32089183967612,-179.12304063861134,Resource International,95,293
Egvekinot,66.32120009761715,-179.12343251195472,Network Corporation,96,294
Egvekinot,66.32081503832043,-179.12389336614316,Research Industries,97,295
Egvekinot,66.32230160554245,-179.12366699783308,Research Organization,98,296
Egvekinot,66.32248708107728,-179.12346840308263,Venture Internet Speed Agency,0,297
Egvekinot,66.32227319691471,-179.12214079721633,Universal Source Organization,1,298
Egvekinot,66.3198513882168,-179.12256478213394,Solutions Inc,2,299
Egvekinot,66.32005556711854,-179.12351481998033,Consulting Technology Future Incorporated,3,300
Egvekinot,66.31966633358064,-179.12179127950432,Software Studio Federated Incorporated,4,301
Egvekinot,66.32258540959103,-179.12134997422592,Power Industries,5,302
Egvekinot,66.32157734794372,-179.12324570577383,General Group,6,303
Egvekinot,66.31963871474284,-179.12215305856495,Research Future International,7,304
Egvekinot,66.32279510859509,-179.1216588481474,General Max Design International,8,305
Egvekinot,66.32137919661885,-179.12307953644347,Vision Advanced Net International,9,306
Egvekinot,66.3219079088885,-179.12409208786963,Speed Frontier Industries,10,307
Egvekinot,66.32181400319313,-179.11988498219327,Systems Future Solutions Co,11,308
Egvekinot,66.32199612655609,-179.12055999660396,Vision Corporation,12,309
Egvekinot,66.32191819026805,-179.1209440461486,Hill East International,13,310
Egvekinot,66.32180520246803,-179.12020595252375,Analysis LLC,14,311
Egvekinot,66.31967217410336,-179.12181109555934,Design Incorporated,15,312
Egvekinot,66.32326403497473,-179.1225724915772,Atlantic South Contract Limited,16,313
Egvekinot,66.32157743298026,-179.12310617913315,Electronics Net Virtual Co,17,314
Egvekinot,66.32197708652615,-179.12273504172947,Vision Corporation,18,315
Egvekinot,66.32028874790316,-179.120961889272,Architecture Innovation Group,19,316
Egvekinot,66.32099184948954,-179.121954657045,Building Co,20,317
Egvekinot,66.3200138388865,-179.12148970964518,Net South Co,21,318
Egvekinot,66.32324933447126,-179.1202362592029,Bell Interactive Source Agency,22,319
Egvekinot,66.32260344314025,-179.1233789486111,Resource North Organization,23,320
Egvekinot,66.3211063986877,-179.12040605192604,Contract Power Co,24,321
Egvekinot,66.31995414764583,-179.121201108044,Power Venture Provider Limited,25,322
Egvekinot,66.32144639010342,-179.12226403479391,Network Direct Corporation,26,323
Egvekinot,66.32018049476686,-179.12028558839566,Federated Resource Corporation,27,324
Egvekinot,66.32277677144674,-179.12035244626622,Omega Incorporated,28,325
Egvekinot,66.32319171079169,-179.12163300614117,East Inc,29,326
Egvekinot,66.3230696079353,-179.12361508270808,Internet Virtual Corporation,30,327
Egvekinot,66.32093504509707,-179.12064884786494,Provider Technology Star Co,31,328
Egvekinot,66.31964689887646,-179.1219141195564,Design Innovation Corporation,32,329
Egvekinot,66.32181808209882,-179.12083584946237,Solutions South Co,33,330
Egvekinot,66.32225950786705,-179.12209142637332,Universal Medicine Industries Incorporated,34,331
Egvekinot,66.32299179098206,-179.12274256240602,Hill Direct Limited,35,332
Egvekinot,66.32365517673311,-179.12266547315346,Electronics Bell Inc,36,333
Egvekinot,66.32330907275174,-179.12321916217238,West Galaxy Industries,37,334
Egvekinot,66.32298523532802,-179.12391692831056,Star Galaxy International,38,335
Egvekinot,66.32079194832883,-179.12229517707078,Power Net Limited,39,336
Egvekinot,66.32227739859957,-179.11973272399453,Power Solutions Group,40,337
Egvekinot,66.32383910444898,-179.12257334782416,Vision Research Contract Industries,41,338
Egvekinot,66.32239829049365,-179.1209701142744,Software Solutions LLC,42,339
Egvekinot,66.324009231555,-179.12231287008223,Galaxy Digital Industries,43,340
Egvekinot,66.32294820384381,-179.12204451889914,Architecture Resource Galaxy Organization,44,341
Egvekinot,66.3202147857679,-179.12292760875027,Telecom Inc,45,342
Egvekinot,66.32087364932211,-179.12377002252373,Virtual Industries Vision Corporation,46,343
Egvekinot,66.32320751927658,-179.12376952251637,Power Corporation,47,344
Egvekinot,66.32020379609541,-179.1200871258387,Bell Group,48,345
Egvekinot,66.32095001583848,-179.12057438498442,Star Federated LLC,49,346
Egvekinot,66.32274536177788,-179.12210306779355,Technology Design People Co,50,347
Egvekinot,66.32124998836382,-179.1201711109548,Construction Limited,51,348
Egvekinot,66.32198563857406,-179.12261952508112,Digital Hardware Agency,52,349
Egvekinot,66.32387922142168,-179.1225746823634,Galaxy General Systems Industries,53,350
Egvekinot,66.3221928991183,-179.1228810518683,Architecture Atlantic Group,54,351
Egvekinot,66.32242918917248,-179.11985154262132,East Building LLC,55,352
Egvekinot,66.32366610515055,-179.12271336296268,Software Limited,56,353
Egvekinot,66.32182856575203,-179.12116788248463,Electronic International,57,354
Egvekinot,66.32126783909959,-179.1209462347472,Direct Agency,58,355
Egvekinot,66.32077260782266,-179.12018485720785,Federated Inc,59,356
Egvekinot,66.32387941500502,-179.12260862003168,West Digital Universal Limited,60,357
Egvekinot,66.32273191257129,-179.12271300103174,West Digital Analysis Organization,61,358
Egvekinot,66.31943228490684,-179.12201809942388,Construction Corporation,62,359
Egvekinot,66.3202784334542,-179.12006461580552,Technology Corporation,63,360
Egvekinot,66.32378383397345,-179.12149075566302,Max Hardware Group,64,361
Egvekinot,66.32306664940648,-179.12335118883564,Virtual Adventure Agency,65,362
Egvekinot,66.32274056653303,-179.1239188943961,Venture Contract Virtual International,66,363
Egvekinot,66.32107591080295,-179.12157626269743,Medicine Inc,67,364
Egvekinot,66.32187527665619,-179.12020449865983,Atlantic Inc,68,365
Egvekinot,66.32022746439822,-179.12352914558994,General Venture Speed LLC,69,366
Egvekinot,66.32382586492585,-179.1229495235696,Solutions Construction Industries,70,367
Egvekinot,66.32384004097666,-179.12172426039206,Medicine Federated Organization,71,368
Egvekinot,66.3237087511047,-179.12082715124478,Signal LLC,72,369
Egvekinot,66.32162275830683,-179.12407218324384,Virtual Corporation,73,370
Egvekinot,66.32302962560422,-179.12352467827114,Design Studio Co,74,371
Egvekinot,66.32129396852689,-179.12342803717553,Resource Network Agency,75,372
Egvekinot,66.32250844595872,-179.12265430004643,Software Graphics Agency,76,373
Egvekinot,66.32291903660023,-179.12290651030844,Application Frontier Design Inc,77,374
Egvekinot,66.32094370267822,-179.12040095291698,Universal North Industries,78,375
Egvekinot,66.32245889764359,-179.12137918246358,Innovation International,79,376
Egvekinot,66.32308683036183,-179.12166958555918,Contract Corporation,80,377
Egvekinot,66.32112002614916,-179.1205535110992,Design Omega West International,81,378
Egvekinot,66.32208297824812,-179.12234803218058,Star Hill LLC,82,379
Egvekinot,66.32318666246921,-179.12226478093308,Max Limited,83,380
Egvekinot,66.31999789594364,-179.12271257503252,Graphics Hardware Industries,84,381
Egvekinot,66.32194310699262,-179.12167454999255,Power Corporation,85,382
Egvekinot,66.32333591724961,-179.1235909977178,Graphics Data Limited,86,383
Egvekinot,66.32220200416648,-179.12087872592582,Medicine Technology Alpha Limited,87,384
Egvekinot,66.32376244045166,-179.1223864029268,Venture Star Incorporated,88,385
Egvekinot,66.32033934425289,-179.12049081010178,Research Federated Co,89,386
Egvekinot,66.32103716677463,-179.12263825864505,Consulting Pacific Virtual Incorporated,90,387
Egvekinot,66.32140672665406,-179.1207328386939,Electronic Digital Frontier International,91,388
Egvekinot,66.32139621541037,-179.1223394454153,Power Industries,92,389
Egvekinot,66.32053331630169,-179.12248611384018,Electronics Innovation Construction Group,93,390
Egvekinot,66.321173649795,-179.12069071309122,Construction Medicine Organization,94,391
Egvekinot,66.32060417521063,-179.12015727433436,Hardware People Architecture Group,95,392
Egvekinot,66.3231839764904,-179.1203570449848,Industries Inc,96,393
Egvekinot,66.32046127838784,-179.12213732591127,People Pacific Solutions International,97,394
Egvekinot,66.32028572751351,-179.1225536485207,Max Telecom Inc,98,395
Egvekinot,66.32274688965768,-179.12274579926577,Hardware People International,0,396
Egvekinot,66.31971610777443,-179.1207593851575,Hill Co,1,397
Egvekinot,66.31959214489076,-179.12125877831207,Future Alpha Interactive Inc,2,398
Egvekinot,66.32259762925845,-179.1232559935988,Virtual Inc,3,399
Egvekinot,66.32123919068124,-179.1230796505201,Bell Solutions Speed Incorporated,4,400
Egvekinot,66.32193519062949,-179.12224617168584,Solutions People Corporation,5,401
Egvekinot,66.32259334814557,-179.12278516200573,General Alpha Incorporated,6,402
Egvekinot,66.32079563334158,-179.1204509452732,Medicine Inc,7,403
Egvekinot,66.32243068072069,-179.1226798474882,Vision Power Agency,8,404
Egvekinot,66.32197380364168,-179.12005968084503,Resource Co,9,405
Egvekinot,66.32155974522703,-179.12115443029097,Power LLC,10,406
Egvekinot,66.32371550411445,-179.12243982150306,Star Group,11,407
Egvekinot,66.32232201699114,-179.12110573980002,Electronics LLC,12,408
Egvekinot,66.32213679516191,-179.1202311929943,Power Omega Design Incorporated,13,409
Egvekinot,66.32184707368826,-179.1219132885671,Studio Graphics Provider Corporation,14,410
Egvekinot,66.32010567045609,-179.121778624517,Vision Virtual South Group,15,411
Egvekinot,66.32216189499893,-179.12264822075707,Venture Solutions Vision Organization,16,412
Egvekinot,66.3203042521721,-179.12375963627446,Systems Industries Organization,17,413
Egvekinot,66.32306218835384,-179.12177198530202,Digital Solutions Co,18,414
Egvekinot,66.31937263557849,-179.12213304346395,Medicine Resource South Inc,19,415
Egvekinot,66.32169296449518,-179.12014515589226,Federated Studio Inc,20,416
Egvekinot,66.31975491768986,-179.12109974315385,Construction Digital Co,21,417
Egvekinot,66.32299828746491,-179.1204310330244,Hardware Agency,22,418
Egvekinot,66.32023911567086,-179.12203691123156,Venture Agency,23,419
Egvekinot,66.32153434318579,-179.12257529139669,Frontier Agency,24,420
Egvekinot,66.3230420939546,-179.1226241287527,Net Incorporated,25,421
Egvekinot,66.32383139444765,-179.12235283589263,Signal Atlantic LLC,26,422
Egvekinot,66.32076566800379,-179.11978258665167,Pacific Speed Construction Incorporated,27,423
Egvekinot,66.32005508890826,-179.12162050350005,Vision Network Group,28,424
Egvekinot,66.32247085671851,-179.1201476662707,Industries Network Agency,29,425
Egvekinot,66.3202356454741,-179.12124872445526,Graphics Group,30,426
Egvekinot,66.31986036951704,-179.12075652897335,Signal Contract Electronic LLC,31,427
Egvekinot,66.3229229736932,-179.120330004798,Vision Pacific Net LLC,32,428
Egvekinot,66.32321200451464,-179.1208194887373,Digital Analysis Medicine Industries,33,429
Egvekinot,66.32165989705503,-179.12371351267052,People Frontier Agency,34,430
Egvekinot,66.31950721128707,-179.1215954179948,Research East Analysis International,35,431
Egvekinot,66.32296929372635,-179.12025276390176,Medicine Limited,36,432
Egvekinot,66.32239497638189,-179.1236919877433,Systems Alpha Group,37,433
Egvekinot,66.3215414373119,-179.1229322548052,Vision Universal Inc,38,434
Egvekinot,66.32163626152995,-179.1236173109654,Virtual Systems Agency,39,435
Egvekinot,66.32207689085702,-179.12002810844237,Electronics Limited,40,436
Egvekinot,66.3215502036115,-179.12041530245585,Application Studio Agency,41,437
Egvekinot,66.3195590238651,-179.12253882308303,Hardware Architecture Limited,42,438
Egvekinot,66.32291337333353,-179.12236985940604,Bell Star Incorporated,43,439
Egvekinot,66.32196855787349,-179.12067749394782,Internet Bell Corporation,44,440
Egvekinot,66.32230175728331,-179.12157632586414,Design Source Frontier Limited,45,441
Egvekinot,66.32239844791252,-179.12391536123258,Interactive Solutions North Organization,46,442
Provideniya,64.42245966013625,-173.22654486631555,Telecom Hill LLC,100,443
Provideniya,64.422421718918,-173.2281193228968,Contract Advanced Systems LLC,101,444
Provideniya,64.42165209300073,-173.2267474451292,Atlantic Source General Agency,102,445
Provideniya,64.42226453100578,-173.22451289356565,Industries Graphics Co,103,446
Provideniya,64.42415704626758,-173.22602325881735,Contract Incorporated,104,447
Provideniya,64.42224840665733,-173.22672469475134,Telecom Alpha Source Incorporated,105,448
Provideniya,64.42204674401273,-173.22737675481235,Graphics Limited,106,449
Provideniya,64.42430235248044,-173.2268437594591,Star Software Corporation,107,450
Provideniya,64.42132817710514,-173.22603290488652,East Direct Graphics Organization,108,451
Provideniya,64.42101373837949,-173.22572645298925,South Contract Co,109,452
Provideniya,64.42228712640937,-173.2271769250897,Analysis Atlantic Agency,110,453
Provideniya,64.42397898289813,-173.22585048734504,Internet Limited,111,454
Provideniya,64.42099711120503,-173.22681047353183,Provider Inc,112,455
Provideniya,64.42124597929642,-173.2266410800245,Medicine Application Co,113,456
Provideniya,64.42385604681616,-173.22736720087948,Future Inc,114,457
Provideniya,64.42306684523281,-173.22464364030776,Source Consulting Innovation Corporation,115,458
Provideniya,64.42373268649222,-173.22555496819695,Solutions Telecom Group,116,459
Provideniya,64.42357224606369,-173.22539692325702,Provider Industries,117,460
Provideniya,64.42143490730258,-173.22791310076155,Solutions Co,118,461
Provideniya,64.42395641182681,-173.22687039008844,Electronic Innovation Network International,119,462
Provideniya,64.42382709966418,-173.2263112690941,Hill Innovation Medicine Incorporated,120,463
Provideniya,64.42225526423448,-173.2265448231126,Star South Pacific Incorporated,121,464
Provideniya,64.4235187455732,-173.22523913688036,Systems LLC,122,465
Provideniya,64.42152463281818,-173.2255820756508,Studio Corporation,123,466
Provideniya,64.42296005903269,-173.22593510993246,Provider Direct Limited,124,467
Provideniya,64.42137732936116,-173.22732426064803,Omega General Future International,125,468
Provideniya,64.42343174761216,-173.22530328297984,Max Venture Agency,126,469
Provideniya,64.42417943491216,-173.22761274782462,Source LLC,127,470
Provideniya,64.421197525495,-173.22628145532912,Max Limited,128,471
Provideniya,64.42406266468787,-173.22635540521324,Hardware International,129,472
Provideniya,64.42282136310327,-173.22598494759694,Software Omega Resource Organization,130,473
Provideniya,64.42298037766056,-173.22450633012284,Architecture Signal Digital Incorporated,131,474
Provideniya,64.42179742686335,-173.22803070349744,Research Group,132,475
Provideniya,64.42123953577543,-173.2253770670861,Advanced Medicine Vision Group,133,476
Provideniya,64.4231939562377,-173.22563231646046,Federated Virtual Research Co,134,477
Provideniya,64.4235700597237,-173.22659580752122,Hill Analysis Omega Agency,135,478
Provideniya,64.42094695966236,-173.22676069595673,Network Organization,136,479
Provideniya,64.42305556244206,-173.22826721687184,Data Virtual LLC,137,480
Provideniya,64.42186017492394,-173.224987385809,Speed Interactive Agency,138,481
Provideniya,64.42315969319593,-173.22761648501876,South Virtual Bell Group,139,482
Provideniya,64.42321052481563,-173.22528965185975,East Limited,140,483
Provideniya,64.42117946036196,-173.22656027238915,Electronic Star Group,141,484
Provideniya,64.42316763545364,-173.2279571128276,People Incorporated,142,485
Provideniya,64.42268139837755,-173.2259063287083,Frontier Resource Organization,143,486
Provideniya,64.42164763743124,-173.22698759900953,Digital Bell LLC,144,487
Provideniya,64.42220654967771,-173.22604671484575,West Corporation,145,488
Provideniya,64.42365212523869,-173.22722948736424,Design Architecture Limited,146,489
Provideniya,64.42206525369599,-173.22500582816667,Digital East Hardware Co,147,490
Provideniya,64.42242959357236,-173.22815843298565,Contract Solutions Co,148,491
Provideniya,64.42162889224771,-173.22803313842013,Medicine Industries,149,492
Provideniya,64.42137109549397,-173.2251556261023,Building Hardware LLC,150,493
Provideniya,64.42119786659154,-173.2268773403807,Frontier Bell Research Industries,151,494
Provideniya,64.42435932227173,-173.22528929281145,People Signal Inc,152,495
Provideniya,64.42412528661954,-173.22546252517427,Provider Co,153,496
Provideniya,64.42173705229726,-173.2269484525474,Galaxy International,154,497
Provideniya,64.42223326275594,-173.22756135577077,Net Research Inc,155,498
Provideniya,64.42329481351916,-173.22753469970456,West Virtual Advanced Agency,156,499
Provideniya,64.42225684972591,-173.22815476285604,Innovation Net People International,157,500
Provideniya,64.42324680182654,-173.2268779630206,Systems Contract Corporation,158,501
Provideniya,64.42437364601359,-173.22649836664291,Universal Organization,159,502
Provideniya,64.42300535487182,-173.22788541798974,Design Software Agency,160,503
Provideniya,64.42417614686397,-173.2274643374386,Construction Organization,161,504
Provideniya,64.42253204469493,-173.22684652234872,Atlantic Design Co,162,505
Provideniya,64.42233681870646,-173.2268112196308,Future Internet Group,163,506
Provideniya,64.42259932237423,-173.22568868040742,Advanced Data Group,164,507
Provideniya,64.42312408416676,-173.22702083997783,Frontier Limited,165,508
Provideniya,64.42121170367531,-173.22697296651643,Interactive East Inc,166,509
Provideniya,64.42382135207606,-173.22719875904667,Graphics General Vision Organization,167,510
Provideniya,64.4232824830715,-173.2258911272316,Studio Industries,168,511
Provideniya,64.4232677250298,-173.2261285672406,Electronic Vision Inc,169,512
Provideniya,64.42168645411424,-173.2277486340622,Contract Design Corporation,170,513
Provideniya,64.42176580971893,-173.22745384832228,Vision Future Electronic Co,171,514
Provideniya,64.42394759755621,-173.22806825284465,Consulting Pacific West Organization,172,515
Provideniya,64.42347078226747,-173.22470542949605,Hill Network Omega International,173,516
Provideniya,64.42274258810724,-173.22641148306636,Vision Graphics Limited,174,517
Provideniya,64.42244285238206,-173.22724736738996,Max Medicine Resource Corporation,175,518
Provideniya,64.42121503393929,-173.22655104060945,Atlantic Application LLC,176,519
Provideniya,64.4233310436354,-173.22708154670062,Provider Contract Agency,177,520
Provideniya,64.42478436441088,-173.22720079897368,Architecture Industries,178,521
Provideniya,64.42464105625302,-173.2273835038003,Star Signal Digital Limited,179,522
Provideniya,64.42391751474275,-173.22744084760959,Frontier Graphics Application Inc,180,523
Provideniya,64.42421596001303,-173.22581446923795,Direct East Group,181,524
Provideniya,64.42396300071027,-173.2247853686425,Vision Limited,182,525
Provideniya,64.42270003965861,-173.22633914239353,Star Direct Limited,183,526
Provideniya,64.42227335610403,-173.22663972327604,Signal Contract General Corporation,184,527
Provideniya,64.42425327641809,-173.22511460595598,Provider Pacific Star Inc,185,528
Provideniya,64.42358962756404,-173.22723410726502,Adventure Net Frontier Incorporated,186,529
Provideniya,64.42418018572725,-173.22739317918357,Vision Frontier Resource Limited,187,530
Provideniya,64.42377387143053,-173.22662200194972,Internet Graphics Advanced Industries,188,531
Provideniya,64.42306635970267,-173.22820444897116,Provider Industries,189,532
Provideniya,64.42173195709938,-173.22629539000718,Graphics Research Power Industries,190,533
Provideniya,64.42286132491617,-173.2272823477891,Bell Incorporated,191,534
Provideniya,64.42110298283225,-173.22644462817075,Contract Innovation Inc,192,535
Provideniya,64.42303493830288,-173.22773288916036,Contract Federated International,193,536
Provideniya,64.42428560343036,-173.2264121183154,Building Agency,194,537
Provideniya,64.42440358238315,-173.22658368281964,Power Star Adventure Co,195,538
Provideniya,64.42274172193895,-173.22806567672447,Building LLC,196,539
Provideniya,64.42309893445174,-173.22759079874896,Analysis Omega General Incorporated,197,540
Provideniya,64.42288722698356,-173.22746036566528,Alpha West Consulting Co,198,541
Provideniya,64.42354330566452,-173.22574712820636,Analysis Star Incorporated,100,542
Provideniya,64.42364762964982,-173.22753875686783,Digital West Inc,101,543
Provideniya,64.42185333272728,-173.225499392402,Technology International,102,544
Provideniya,64.42453417632257,-173.2264637740478,Construction Internet Inc,103,545
Provideniya,64.4244440295099,-173.2251645239643,Omega Interactive Group,104,546
Provideniya,64.42228818114666,-173.22754042595105,Innovation Internet Signal International,105,547
Provideniya,64.42232550705204,-173.22456741362657,Innovation Star Galaxy Limited,106,548
Provideniya,64.42417604870116,-173.22760162688797,Medicine Vision Industries,107,549
Provideniya,64.42431258595352,-173.22560470603014,Omega Solutions Industries Corporation,108,550
Provideniya,64.42127159817286,-173.22539725559201,Net Limited,109,551
Provideniya,64.42270644643382,-173.22831124853525,Telecom Bell Universal Inc,110,552
Provideniya,64.42317111007506,-173.22669592170493,East Federated Bell International,111,553
Provideniya,64.42293526993785,-173.22567504416224,Building Technology International,112,554
Provideniya,64.42155208499761,-173.22674653335858,Signal South Federated LLC,113,555
Provideniya,64.4239165318584,-173.22532649293913,Frontier Inc,114,556
Provideniya,64.42267407185231,-173.2250483537441,Star Incorporated,115,557
Provideniya,64.4213055039772,-173.22615315156435,Innovation South Industries,116,558
Provideniya,64.4222143917857,-173.22720800785504,Frontier Organization,117,559
Provideniya,64.42446706790079,-173.2273157925957,Adventure Future Agency,118,560
Provideniya,64.4220374420407,-173.22686425205373,Net Building Alpha Incorporated,119,561
Provideniya,64.42461653106393,-173.22707107864656,Consulting Source Atlantic Inc,120,562
Provideniya,64.42173730708738,-173.2263045317302,Telecom Incorporated,121,563
Provideniya,64.42319625087062,-173.22659383586347,Universal Virtual Advanced Group,122,564
Provideniya,64.42269270062019,-173.2247656275476,Adventure Data Systems Industries,123,565
Provideniya,64.42343292946087,-173.2269649152352,Pacific Corporation,124,566
Provideniya,64.42268545984545,-173.22471214574878,Medicine International,125,567
Provideniya,64.42349976124915,-173.22760697718599,Venture Net Telecom Corporation,126,568
Provideniya,64.42199281566968,-173.2253673473085,Virtual East LLC,127,569
Provideniya,64.42266918068259,-173.225559462121,General Technology Co,128,570
Provideniya,64.42485940335509,-173.22683526811306,Telecom Galaxy Organization,129,571
Provideniya,64.42191532918349,-173.2273541786328,Resource Adventure LLC,130,572
Provideniya,64.42373857465755,-173.2264389335218,Research Systems Co,131,573
Provideniya,64.42252425842555,-173.22465939083378,Vision Co,132,574
Provideniya,64.42435481881698,-173.22564463139233,Net Limited,133,575
Provideniya,64.42473916772194,-173.2270423359597,General Advanced LLC,134,576
Provideniya,64.42289614454988,-173.22446475070416,Frontier Vision Adventure Agency,135,577
Provideniya,64.42424861576657,-173.22498543947336,Medicine Incorporated,136,578
Provideniya,64.42171656040676,-173.22482698691024,Advanced Corporation,137,579
Provideniya,64.42109568970538,-173.226686619912,Analysis Research Star Group,138,580
Provideniya,64.4237934834371,-173.2274380532611,Internet Building Electronic Agency,139,581
Provideniya,64.421812337321,-173.2260993195413,Adventure Omega Co,140,582
Provideniya,64.42159450418629,-173.22612316801278,Network Innovation Electronic Industries,141,583
Provideniya,64.42146161956,-173.2256678113275,People Group,142,584
Provideniya,64.42356738239401,-173.22532382717085,Virtual General Medicine Agency,143,585
Provideniya,64.42211506786542,-173.22816838629794,Industries Systems Virtual Inc,144,586
Provideniya,64.4232492855267,-173.22594396878813,Virtual Net Co,145,587
Provideniya,64.42134210856486,-173.22712401078925,Virtual Medicine Incorporated,146,588
Provideniya,64.42163731343459,-173.22682713623828,Design Incorporated,147,589
Provideniya,64.42420281775331,-173.22534748094802,Galaxy Architecture Limited,148,590
Provideniya,64.42293067594659,-173.2272812173922,Telecom Corporation,149,591
Provideniya,64.4227027454356,-173.22644723625717,Data Telecom Corporation,150,592
Provideniya,64.42217058788864,-173.22759423551562,Internet Interactive Provider Corporation,151,593
Provideniya,64.42398580004766,-173.22483394000648,Vision International,152,594
Provideniya,64.42373482984468,-173.22532923509027,Hill Future Group,153,595
Provideniya,64.42286804493425,-173.22438392932918,Hill Speed Industries,154,596
Provideniya,64.42320515265827,-173.2250528982102,Hill International,155,597
Provideniya,64.42237877479387,-173.22691345354346,Consulting Advanced Federated International,156,598
Provideniya,64.42422736316536,-173.22612871895254,Frontier International,157,599
Provideniya,64.4243996012135,-173.22604168300626,Architecture Incorporated,158,600
Provideniya,64.42383244607869,-173.2254283547638,South Limited,159,601
Provideniya,64.42140728759624,-173.22712955558228,South Speed East Organization,160,602
Provideniya,64.42290235876779,-173.22561862694985,Electronic Inc,161,603
Provideniya,64.42150853847383,-173.22601844419015,Federated International,162,604
Provideniya,64.42137726927375,-173.22703817237465,Internet Studio Organization,163,605
Provideniya,64.42175688564564,-173.2248455684604,Design Incorporated,164,606
Provideniya,64.42411572775104,-173.22688781322523,Atlantic Design Incorporated,165,607
Provideniya,64.42279975528251,-173.2256025723896,Adventure North LLC,166,608
Provideniya,64.42166356900574,-173.22568313269,Universal Advanced Innovation Group,167,609
Provideniya,64.4242477656863,-173.22483170917485,Net Power Corporation,168,610
Provideniya,64.42443182990127,-173.22712718962492,Hill Provider International,169,611
Provideniya,64.4241837312763,-173.2271209515785,Universal Provider Industries,170,612
Provideniya,64.42184715012868,-173.22546481944528,Vision Incorporated,171,613
Provideniya,64.42384638121887,-173.2255081750363,Building South Provider Limited,172,614
Provideniya,64.42139233574284,-173.22768871554803,West Star LLC,173,615
Provideniya,64.4221916772397,-173.22658255795938,Hardware Adventure Architecture Agency,174,616
Provideniya,64.42223888394113,-173.2255020919294,Data Limited,175,617
Provideniya,64.4232884949427,-173.2284312621134,Solutions Inc,176,618
Provideniya,64.42234211623298,-173.2263869084014,General Max Inc,177,619
Provideniya,64.42312246340775,-173.22802686500341,Systems Building Innovation Limited,178,620
Provideniya,64.42113605681142,-173.22534163685128,Signal Analysis Solutions Limited,179,621
Provideniya,64.42123400880459,-173.22539243735542,Contract Limited,180,622
Provideniya,64.4228941457582,-173.22441883002554,Omega East Limited,181,623
Provideniya,64.42206513911569,-173.22481639278968,Virtual Research Inc,182,624
Provideniya,64.42116281198714,-173.22542029842685,Source Co,183,625
Provideniya,64.42274864153343,-173.22592107099513,Software Max Venture Incorporated,184,626
Provideniya,64.42207597043915,-173.22619194605534,Speed Advanced Provider Group,185,627
Provideniya,64.42234137618438,-173.22700851969626,Internet Organization,186,628
Provideniya,64.42174178889499,-173.22570821118842,Data Star Group,187,629
Provideniya,64.4238846048204,-173.22533051587115,Hardware Max Organization,188,630
Provideniya,64.4246298158866,-173.22691511291112,Net Direct Software Co,189,631
Provideniya,64.42403796587315,-173.22775820603866,Omega Atlantic Galaxy Incorporated,190,632
Provideniya,64.42352085104483,-173.22674181986574,Advanced Organization,191,633
Provideniya,64.42262904464164,-173.22841835876028,Frontier Incorporated,192,634
Provideniya,64.42167592086923,-173.22708489030967,Bell Power Direct Industries,193,635
Provideniya,64.42096659791275,-173.22699234411476,Studio Alpha Direct Limited,194,636
Provideniya,64.42226598706591,-173.22777375330128,Industries Net Co,195,637
Provideniya,64.42386693675085,-173.22706589345194,Digital Electronic Innovation Group,196,638
Provideniya,64.42438229960983,-173.22505382861203,Electronic Systems Organization,197,639
Provideniya,64.42210730525423,-173.22461636780562,Building Organization,198,640
Provideniya,64.42283921096161,-173.22666686443117,Network LLC,100,641
Provideniya,64.42491441063939,-173.2261347540029,Application Solutions Co,101,642
Provideniya,64.42381161529782,-173.22799853944963,Medicine Co,102,643
Provideniya,64.42262988195611,-173.22547689707153,Bell Limited,103,644
Provideniya,64.42088629703933,-173.22636704664285,Studio Co,104,645
Provideniya,64.42232761270597,-173.22476086862324,Research South Incorporated,105,646
Provideniya,64.42176728427685,-173.22550741893372,Application Hill Co,106,647
Provideniya,64.4227676352405,-173.22617778718163,Bell Application East Limited,107,648
Provideniya,64.42124877154883,-173.22749276506443,Internet International,108,649
Provideniya,64.42244120853191,-173.22527683121956,Future Digital Co,109,650
Provideniya,64.42318173368811,-173.226179727059,West Industries,110,651
Provideniya,64.42456355399466,-173.22658164288205,Electronics Universal Building LLC,111,652
Provideniya,64.42370353974464,-173.22808133222063,Medicine Inc,112,653
Provideniya,64.42268200300121,-173.22573460268728,Federated Bell Co,113,654
Provideniya,64.42124570189095,-173.22534105895082,Application Universal Frontier Group,114,655
Provideniya,64.42277221150063,-173.22437898110854,Building Hardware Organization,115,656
Provideniya,64.42165726846366,-173.22636502455512,Building Network Industries,116,657
Provideniya,64.42311246529061,-173.2267148408841,Star Systems Resource Co,117,658
Provideniya,64.42339260980086,-173.22677164370614,Vision Adventure Incorporated,118,659
Provideniya,64.42322122330079,-173.22695841389466,Venture Limited,119,660
Provideniya,64.42304323027678,-173.22815597032388,Vision Universal Max Agency,120,661
Provideniya,64.42375309543287,-173.22795772491102,Building Incorporated,121,662
Provideniya,64.42272075196665,-173.22757293014004,Signal Frontier Software Inc,122,663
Provideniya,64.42299145740071,-173.2283312264157,Vision Net Inc,123,664
Provideniya,64.42254498380841,-173.22574001493945,Graphics Corporation,124,665
Provideniya,64.42204742790415,-173.225479758176,Speed LLC,125,666
Provideniya,64.42370538505206,-173.22755794249707,Vision Electronics Venture LLC,126,667
Provideniya,64.42362181480411,-173.22734771422643,Medicine Software Design Group,127,668
Provideniya,64.42136406703499,-173.22558142753712,Systems Speed Net Group,128,669
Provideniya,64.42109737296633,-173.22692925207141,Frontier Inc,129,670
Provideniya,64.42121216509648,-173.2252144910086,Studio Group,130,671
Provideniya,64.42378073222476,-173.22545083951587,Solutions Studio Organization,131,672
Provideniya,64.42374823353161,-173.22486927183496,Studio Group,132,673
Provideniya,64.42165919846896,-173.22476034170492,Provider Contract LLC,133,674
Provideniya,64.42334468120568,-173.22807235808241,Telecom Resource Vision LLC,134,675
Provideniya,64.42237920586466,-173.22672116652137,Signal Design Organization,135,676
Provideniya,64.4238950465502,-173.22823381761114,Telecom Provider Incorporated,136,677
Provideniya,64.42359703629376,-173.22681272457962,Hill People Research Organization,137,678
Provideniya,64.4222323165462,-173.2268174544131,Adventure Inc,138,679
Provideniya,64.42413155374147,-173.2259246255655,South Industries,139,680
Provideniya,64.42187924084136,-173.2280776391866,Consulting Contract Organization,140,681
Provideniya,64.42421512695711,-173.2256817166351,Digital Co,141,682
Provideniya,64.424085200753,-173.2261237472052,Source Telecom Agency,142,683
Provideniya,64.42203953577167,-173.22534381357698,Star Limited,143,684
Provideniya,64.42355888381825,-173.2254790706384,General International,144,685
Provideniya,64.42146661559647,-173.22497466097528,Systems Vision South Group,145,686
Provideniya,64.42213349841613,-173.22807193563875,Solutions International,146,687
Provideniya,64.42180516740399,-173.22805426052318,Source Max Organization,147,688
Provideniya,64.42292829525252,-173.22799836097488,Consulting General Omega Incorporated,148,689
Provideniya,64.4238873003631,-173.22655230904127,Consulting Star Digital Incorporated,149,690
Provideniya,64.42199567178912,-173.2278388334392,Consulting Adventure LLC,150,691
Provideniya,64.42395462521976,-173.22618427045754,Galaxy Co,151,692
Provideniya,64.42413285508246,-173.2273670747845,North Group,152,693
Provideniya,64.4227429628899,-173.22672618402504,Frontier Organization,153,694
Provideniya,64.4223405326569,-173.22664932858117,Bell Graphics North Group,154,695
Provideniya,64.42130465704993,-173.22633829613716,Star Data Hill LLC,155,696
Provideniya,64.42291125203332,-173.22659852159455,Federated Telecom Interactive Co,156,697
Provideniya,64.42374746496553,-173.22524621256554,Vision Max Star Corporation,157,698
Provideniya,64.42289487327953,-173.2250661706148,West Agency,158,699
Provideniya,64.42462478948173,-173.22641221845637,Alpha Pacific LLC,159,700
Provideniya,64.42122378986964,-173.22528810446693,Virtual Limited,160,701
Provideniya,64.42390531925524,-173.22701416249663,Provider Alpha Data Industries,161,702
Provideniya,64.42185306959797,-173.22511182365045,Medicine Electronics Research Inc,162,703
Provideniya,64.42242540247199,-173.22553532805568,Omega Analysis Systems Limited,163,704
Provideniya,64.42265948156263,-173.226200969295,Virtual Organization,164,705
Provideniya,64.42434593186044,-173.22512410183288,Medicine Analysis LLC,165,706
Provideniya,64.42374791091346,-173.22672151379933,Medicine LLC,166,707
Provideniya,64.42313931836472,-173.22750789686737,People Limited,167,708
Provideniya,64.42356368046893,-173.22604944099547,Hill Net Solutions Limited,168,709
Provideniya,64.4220822540732,-173.22667425210116,Innovation Future Bell Incorporated,169,710
Provideniya,64.4247033977375,-173.22540240871479,Vision Telecom Net LLC,170,711
Provideniya,64.42275556007183,-173.22796251498124,Power Hardware International,171,712
Provideniya,64.42324286586856,-173.22757835506727,Solutions Virtual Adventure Agency,172,713
Provideniya,64.4233103662265,-173.22587654310072,Data Source Group,173,714
Provideniya,64.42313555962951,-173.22531226666408,Virtual South Design Co,174,715
Provideniya,64.42133067110947,-173.22575939777698,Consulting Studio Incorporated,175,716
Provideniya,64.42217378838295,-173.22756606208188,Universal Systems Limited,176,717
Provideniya,64.42307541058013,-173.2264541808902,Net Star Studio Industries,177,718
Provideniya,64.42142179680866,-173.22692389297956,Alpha Federated Application Agency,178,719
Provideniya,64.42320780056198,-173.22484412722662,Telecom People Co,179,720
Provideniya,64.42148188194456,-173.22622375200515,Federated Architecture Solutions International,180,721
Provideniya,64.42422943444897,-173.22748326747637,Frontier Medicine Contract International,181,722
Provideniya,64.422916980564,-173.22729858517974,Future Organization,182,723
Provideniya,64.42299011721326,-173.2260785123566,General Telecom Graphics Group,183,724
Provideniya,64.42312932439914,-173.22529631846882,Design Net Corporation,184,725
Provideniya,64.4217731761626,-173.22543878685772,Graphics Universal Medicine Inc,185,726
Provideniya,64.42382758376766,-173.22534711537614,Solutions Network Signal Group,186,727
Provideniya,64.42404537566853,-173.2264430431473,Studio Star Organization,187,728
Provideniya,64.4213803718747,-173.22562151037326,Analysis Architecture Incorporated,188,729
Provideniya,64.42380602703939,-173.22468452119426,Application Corporation,189,730
Provideniya,64.42302414517951,-173.22735753998612,Source Vision Incorporated,190,731
Provideniya,64.42186487416136,-173.2269948483572,Future Telecom Inc,191,732
Provideniya,64.42460692611046,-173.22611320384544,Provider Inc,192,733
Provideniya,64.42306977172765,-173.22569302132865,General Net LLC,193,734
Provideniya,64.42225874628056,-173.2252136088662,Future Architecture Provider Organization,194,735
Provideniya,64.42206300231749,-173.22747559680255,Vision Hardware Telecom Organization,195,736
Provideniya,64.42273007036187,-173.22503675919495,Atlantic LLC,196,737
Provideniya,64.42389869385241,-173.2272482000722,Signal Industries,197,738
Provideniya,64.4228476175736,-173.2252714656441,Architecture Vision Interactive LLC,198,739
Provideniya,64.42235623087679,-173.22835811535202,Solutions Industries Limited,100,740
Provideniya,64.42293098596274,-173.2254210249945,Pacific Advanced Hardware Group,101,741
Provideniya,64.42283606487605,-173.22811043540094,Digital Software International,102,742
Provideniya,64.42380279691756,-173.2247980694486,Speed Data Consulting Industries,103,743
Provideniya,64.42253350218158,-173.22686931291196,Hill Contract Incorporated,104,744
Provideniya,64.42369078275641,-173.22580965178315,People Incorporated,105,745
Provideniya,64.42483544611207,-173.22622646642097,South Technology Limited,106,746
Provideniya,64.42305504684445,-173.2250633494305,Source Innovation West Co,107,747
Provideniya,64.42220846075564,-173.22820635187978,Electronics Studio Innovation Corporation,108,748
Provideniya,64.42404732748753,-173.22633956924557,Power Contract Inc,109,749
Provideniya,64.42253553300188,-173.22567176084212,Direct Adventure LLC,110,750
Provideniya,64.42276643883338,-173.22670033744004,South Software Co,111,751
Provideniya,64.4247028153193,-173.22694049392675,Net Vision Federated Organization,112,752
Provideniya,64.4226472260676,-173.22477633169134,South Limited,113,753
Provideniya,64.42107530933838,-173.2274135766665,Pacific Vision Industries,114,754
Provideniya,64.42300633122501,-173.22621073988284,Net Research Contract Corporation,115,755
Provideniya,64.42103985928458,-173.22735012062736,Max Inc,116,756
Provideniya,64.4236903540818,-173.2257409632974,Building Star Inc,117,757
Provideniya,64.42395954000577,-173.22769717801734,Interactive Provider Star Organization,118,758
Provideniya,64.42419323187212,-173.22653215122565,Future Interactive Systems Inc,119,759
Provideniya,64.42358889422538,-173.22754630193432,Digital Building Limited,120,760
Provideniya,64.42318203174491,-173.22626564973973,Advanced Consulting Bell Limited,121,761
Provideniya,64.42366463961372,-173.22635650204467,General Bell Interactive International,122,762
Provideniya,64.42081727074488,-173.2265289767472,Contract Future Universal LLC,123,763
Provideniya,64.42332979628581,-173.22631047345575,Hill Digital International,124,764
Provideniya,64.42140568069082,-173.22783748590246,Solutions Max Application Limited,125,765
Provideniya,64.42159262683542,-173.22722680285338,Max LLC,126,766
Provideniya,64.4221058681694,-173.2261611163925,Electronics Medicine Star LLC,127,767
Provideniya,64.42357774175055,-173.226261851957,West Galaxy Construction Co,128,768
Provideniya,64.42368583849398,-173.226785732322,East Limited,129,769
Provideniya,64.42246407098315,-173.22607756064943,Future Bell Max Co,130,770
Provideniya,64.42300012397804,-173.22652982971294,Research Contract Interactive Agency,131,771
Provideniya,64.4236310740737,-173.2269532182139,Systems Architecture International,132,772
Provideniya,64.42383087094731,-173.2274245268728,Star Incorporated,133,773
Provideniya,64.42479308842829,-173.22649972316145,Signal Federated Power Corporation,134,774
Provideniya,64.42217684587648,-173.22626819268476,Source Network Venture Corporation,135,775
Provideniya,64.42385706889026,-173.2275149181175,Vision Network Power Industries,136,776
Provideniya,64.42414648683118,-173.22723747407042,Data Vision Inc,137,777
Provideniya,64.42321097673637,-173.22731736681388,Virtual Alpha Building Inc,138,778
Provideniya,64.42302502055622,-173.22574496321548,Speed West International,139,779
Provideniya,64.42230117512061,-173.22487331333926,Building Virtual Co,140,780
Provideniya,64.42270900962689,-173.22724171210984,Atlantic Agency,141,781
Provideniya,64.42181299316654,-173.22620551611053,Consulting Star LLC,142,782
Provideniya,64.42192864806297,-173.2280477834863,Signal International,143,783
Provideniya,64.4230960099205,-173.22633647010858,Interactive Hardware Organization,144,784
Provideniya,64.42125865120379,-173.2266620937607,Innovation Source Incorporated,145,785
Provideniya,64.42255547076951,-173.2278846771563,Advanced Graphics Venture Industries,146,786
Provideniya,64.42376906011489,-173.22575158849236,Electronic Omega Agency,147,787
Provideniya,64.42300343637315,-173.22749430345226,Studio Electronics Group,148,788
Provideniya,64.4229168020408,-173.22744978315453,Electronics International,149,789
Provideniya,64.42482845284192,-173.22590166959355,Systems Speed Incorporated,150,790
Provideniya,64.4209839421262,-173.2259562462672,Vision Electronics Co,151,791
Provideniya,64.42320277974194,-173.2266489103615,Vision Construction International,152,792
Provideniya,64.4228142795199,-173.2252574702607,Network International,153,793
Provideniya,64.42284406656593,-173.22784756926066,Direct Graphics Interactive Limited,154,794
Provideniya,64.42185866020647,-173.22742982934827,Electronics Agency,155,795
Provideniya,64.4218005510094,-173.22606978120288,Industries Co,156,796
Provideniya,64.42283810945696,-173.22836573683193,Research Max Universal Incorporated,157,797
Provideniya,64.42130060566646,-173.2254936201584,Vision Inc,158,798
Provideniya,64.42168614509741,-173.2252377090785,Speed Consulting Net Limited,159,799
Provideniya,64.4244465090525,-173.22686389023843,Solutions Software Omega Incorporated,160,800
Provideniya,64.42411512169764,-173.2264710188477,Bell Solutions Limited,161,801
Provideniya,64.42280896475418,-173.2283430243072,General Corporation,162,802
Provideniya,64.42279172513462,-173.22701713770104,North Incorporated,163,803
Provideniya,64.42332423573771,-173.22669909381037,East Hill Atlantic Co,164,804
Provideniya,64.42168262481502,-173.22473289748595,Systems Inc,165,805
Provideniya,64.4232809384424,-173.2266230041438,Pacific LLC,166,806
Provideniya,64.42384701183522,-173.22758938809196,Source Group,167,807
Provideniya,64.42365597635892,-173.22535292066377,Adventure Industries Co,168,808
Provideniya,64.42282597259887,-173.22438889008902,Max Group,169,809
Provideniya,64.42237363352162,-173.22774848302038,Advanced Source International,170,810
Provideniya,64.42172129566963,-173.22688543056574,Source Co,171,811
Provideniya,64.42307225027837,-173.2281315960197,Hill Future Atlantic LLC,172,812
Provideniya,64.42133548849709,-173.2258504296868,Electronic Inc,173,813
Provideniya,64.4219815997404,-173.22755039719362,Electronic Agency,174,814
Provideniya,64.42420647934429,-173.2265825665907,Systems Incorporated,175,815
Provideniya,64.42211165382845,-173.22473897446537,Source Incorporated,176,816
Provideniya,64.42337187042936,-173.22829100871178,Digital Inc,177,817
Provideniya,64.42357958187996,-173.22768269491016,Federated Source Graphics Co,178,818
Provideniya,64.42134230817642,-173.2260415568074,Speed Innovation Resource Corporation,179,819
Provideniya,64.42235952633389,-173.22616382879025,Consulting Systems Co,180,820
Provideniya,64.42198163487159,-173.2280911035655,Solutions Architecture Frontier Limited,181,821
Provideniya,64.42292461659511,-173.2277957448955,Electronic South Net Inc,182,822
Provideniya,64.42369988084425,-173.22737591235915,Adventure Organization,183,823
Provideniya,64.42460826445325,-173.2252941587711,General Alpha Group,184,824
Provideniya,64.4226517944412,-173.22594346739328,Software Net Limited,185,825
Provideniya,64.42434022091295,-173.22744048634243,Digital Co,186,826
Provideniya,64.42295645396055,-173.22720568964317,Venture Interactive South Inc,187,827
Provideniya,64.42312005170203,-173.228432457034,Electronics Group,188,828
Provideniya,64.42185073222242,-173.2267053913501,Galaxy Inc,189,829
Provideniya,64.42346761449265,-173.22559774018285,Graphics Agency,190,830
Provideniya,64.42349530942111,-173.22670946456552,Provider Direct Group,191,831
Provideniya,64.42298439288307,-173.22708228626385,Electronics Digital Incorporated,192,832
Provideniya,64.42137664696467,-173.2273199191738,Network Signal Corporation,193,833
Provideniya,64.42167460647285,-173.22512239545873,Power LLC,194,834
Provideniya,64.42212028588467,-173.22520076884578,Technology Electronics Inc,195,835
Provideniya,64.4239904809837,-173.22753968977568,Frontier Software Industries,196,836
Provideniya,64.42333359314313,-173.22635047677878,North Data Provider International,197,837
Provideniya,64.42161353178757,-173.22792950713824,Studio Limited,198,838
Provideniya,64.42341050977447,-173.22560727822702,Omega Solutions Hardware Industries,100,839
Provideniya,64.4225979877243,-173.22523876267948,Industries Studio Organization,101,840
Provideniya,64.42368563189264,-173.2274637750579,Bell Max Incorporated,102,841
Provideniya,64.42247617593812,-173.22783518361783,Universal Network Industries,103,842
Provideniya,64.42291339226834,-173.2283525726575,South Electronic Solutions Inc,104,843
Provideniya,64.42434261983298,-173.2262191803653,Building Consulting Agency,105,844
Provideniya,64.42446510629298,-173.22516031200783,Design International,106,845
Provideniya,64.42320731125618,-173.22661361035594,Federated Consulting Solutions Industries,107,846
Provideniya,64.4215360118033,-173.22539978287583,Data Organization,108,847
Provideniya,64.42335150017432,-173.22481565913338,West Graphics Atlantic Co,109,848
Provideniya,64.42123560297685,-173.22674753770625,Research Organization,110,849
Provideniya,64.42236076056413,-173.22732449241158,Network Advanced Solutions International,111,850
Provideniya,64.4224730125699,-173.22654512825622,Direct Medicine Universal Inc,112,851
Provideniya,64.42359832350331,-173.22574197841777,North International,113,852
Provideniya,64.4230507973837,-173.22665879541344,Adventure Power Signal Corporation,114,853
Provideniya,64.42354928030599,-173.22448096080575,People Organization,115,854
Provideniya,64.42171880875144,-173.22540575494372,Contract South Limited,116,855
Provideniya,64.42222394710646,-173.22648504300844,Galaxy Advanced South Group,117,856
Provideniya,64.42386511984097,-173.2267930369821,Application Hill Advanced Organization,118,857
Provideniya,64.42399739224346,-173.22650965506546,Universal Federated Industries,119,858
Provideniya,64.42365394536756,-173.22694048515888,North Agency,120,859
Provideniya,64.42275572849759,-173.22531025309536,South Graphics Source Incorporated,121,860
Provideniya,64.42399544692843,-173.22571643016983,Direct Limited,122,861
Provideniya,64.42390811179176,-173.2261181707837,Innovation Building North Group,123,862
Provideniya,64.42324859272924,-173.22520914325037,General Research Group,124,863
Provideniya,64.42148056361157,-173.22615794658574,North Data Interactive Group,125,864
Provideniya,64.4238677629281,-173.22531726145354,Interactive Incorporated,126,865
Provideniya,64.42406835333664,-173.22580954570097,Solutions North Design Co,127,866
Provideniya,64.42270215893615,-173.2255732130984,Systems Hill Software Agency,128,867
Provideniya,64.4239404187458,-173.22588163207385,Atlantic Universal Industries,129,868
Provideniya,64.42168373397772,-173.22525213131672,Alpha Agency,130,869
Provideniya,64.4226127346762,-173.22489257999635,East Corporation,131,870
Provideniya,64.42296046559662,-173.22784487035608,Provider Limited,132,871
Provideniya,64.42191336451927,-173.227643531638,Solutions Data Galaxy Limited,133,872
Provideniya,64.4232771618259,-173.22834998642716,Universal Telecom Inc,134,873
Provideniya,64.42408573014785,-173.2268301499695,Solutions Limited,135,874
Provideniya,64.42413865866322,-173.2262359068375,General Architecture Inc,136,875
Provideniya,64.42276244107275,-173.22846728790668,Atlantic People Max LLC,137,876
Provideniya,64.42346397879282,-173.22725826372343,Atlantic Agency,138,877
Provideniya,64.42307212592425,-173.22690979946327,Direct Max International,139,878
Provideniya,64.42273977555811,-173.22759062926363,Electronic Software Industries,140,879
Provideniya,64.42182108864722,-173.22546192313095,Electronic Hardware International,141,880
Provideniya,64.42257418211626,-173.22803384956887,Construction Design Analysis Corporation,142,881
Provideniya,64.42427008265423,-173.22531008578596,Solutions Corporation,143,882
Provideniya,64.42378607985711,-173.22490377039875,Power Telecom Incorporated,144,883
Provideniya,64.42137752375129,-173.22517563647463,Future LLC,145,884
Provideniya,64.42252630847565,-173.22600412785195,Provider Electronics International,146,885
Lorino,65.50435350193521,-171.7029710216614,Telecom Solutions Corporation,200,886
Lorino,65.50275529097752,-171.70213818686756,Systems Resource Organization,201,887
Lorino,65.50457060874594,-171.70384653861169,Adventure Limited,202,888
Lorino,65.5045461286935,-171.7058447643574,Industries Limited,203,889
Lorino,65.50149705024451,-171.70531808239178,General Electronics Incorporated,204,890
Lorino,65.50219596353075,-171.70550174692613,Studio Corporation,205,891
Lorino,65.50368636949496,-171.70380325692418,Pacific LLC,206,892
Lorino,65.50304469113121,-171.70273134276843,Systems Universal Organization,207,893
Lorino,65.50146130300483,-171.7046224077494,Venture Co,208,894
Lorino,65.50384543895512,-171.70258829319155,Analysis Incorporated,209,895
Lorino,65.50227797054175,-171.70259231128986,Max Interactive Co,210,896
Lorino,65.50395183292207,-171.7045062466556,People Digital LLC,211,897
Lorino,65.50223946672442,-171.70423212272772,Omega LLC,212,898
Lorino,65.50429345893673,-171.70244972279642,Application Analysis Incorporated,213,899
Lorino,65.50387280260605,-171.70574504883308,Systems Incorporated,214,900
Lorino,65.50144934231183,-171.70366938749467,Digital People LLC,215,901
Lorino,65.50340587675689,-171.70532283116955,Consulting Inc,216,902
Lorino,65.50445280398078,-171.70573301367358,Application Hill Agency,217,903
Lorino,65.50236456773462,-171.70245401556025,Virtual Medicine Organization,218,904
Lorino,65.5017503851576,-171.7041463502801,Advanced Incorporated,219,905
Lorino,65.50127743287408,-171.70444553155676,General Incorporated,220,906
Lorino,65.50260399602202,-171.7023552351621,Architecture Building Graphics International,221,907
Lorino,65.50357073493576,-171.70483944951425,People Inc,222,908
Lorino,65.501611875456,-171.7024439758755,East Digital Universal Agency,223,909
Lorino,65.50198680981545,-171.70213960170946,Frontier Pacific Star Inc,224,910
Lorino,65.50232282493421,-171.70345105602001,Analysis International,225,911
Lorino,65.50439475032769,-171.70312644864075,Universal Resource Co,226,912
Lorino,65.50232258815973,-171.7023879710671,Adventure Inc,227,913
Lorino,65.50263291013532,-171.7059079522998,North Telecom Co,228,914
Lorino,65.50227848253454,-171.7048892812454,Resource Hill Corporation,229,915
Lorino,65.50264862764661,-171.70184365886854,Solutions Omega LLC,230,916
Lorino,65.50252743541778,-171.70326397936114,Vision Hill LLC,231,917
Lorino,65.50503833748681,-171.7036144198273,Systems Signal Omega Incorporated,232,918
Lorino,65.50408442056045,-171.70179424231122,North Co,233,919
Lorino,65.50488031025716,-171.70272870213375,Atlantic Building Network Group,234,920
Lorino,65.50125439166382,-171.70433601768374,Signal Group,235,921
Lorino,65.50194384672497,-171.70241347518612,North Star LLC,236,922
Lorino,65.50457453650257,-171.70473322997873,Provider Incorporated,237,923
Lorino,65.50481958043648,-171.70498404505366,Design Atlantic People LLC,238,924
Lorino,65.50149949814164,-171.70360439220912,Industries Hardware Analysis Corporation,239,925
Lorino,65.50205118648412,-171.70469619760473,Construction Telecom Direct Co,240,926
Lorino,65.50143774757025,-171.7044172040355,Contract Omega Industries,241,927
Lorino,65.50472099121282,-171.7035580343409,Net Group,242,928
Lorino,65.50122344798477,-171.70381697703198,Alpha Industries Graphics Organization,243,929
Lorino,65.50297482491916,-171.70336415410912,Net Vision Organization,244,930
Lorino,65.5012238713763,-171.70408860622842,Pacific Industries,245,931
Lorino,65.5016585396942,-171.70361819711246,Innovation Omega Incorporated,246,932
Lorino,65.50292974848341,-171.70521544169983,Research Studio Agency,247,933
Lorino,65.50131254004528,-171.7050872671346,Building Agency,248,934
Lorino,65.50268113809253,-171.70402378663766,Studio Inc,249,935
Lorino,65.50406072201824,-171.70431175793883,Software Design Systems Industries,250,936
Lorino,65.50531602456701,-171.70304018177373,Medicine Bell Industries,251,937
Lorino,65.504013688487,-171.70439723298324,Galaxy South Incorporated,252,938
Lorino,65.50372060716552,-171.70437105037908,Frontier International,253,939
Lorino,65.5036068315879,-171.70189788461482,Consulting Universal Organization,254,940
Lorino,65.50136006049343,-171.70410925785401,East Agency,255,941
Lorino,65.50134065082365,-171.70381061296402,Studio Organization,256,942
Lorino,65.50119320771704,-171.70290436410275,Architecture Construction LLC,257,943
Lorino,65.50527168879417,-171.7035295545323,Innovation Pacific Federated Corporation,258,944
Lorino,65.50504582696995,-171.70443511114493,Architecture Telecom Limited,259,945
Lorino,65.50242314023434,-171.7045740785718,Application Construction Medicine International,260,946
Lorino,65.5030319141144,-171.70289622142448,Net Omega LLC,261,947
Lorino,65.50246528286475,-171.70424781856673,Research Incorporated,262,948
Lorino,65.5026093258037,-171.70424633875436,Alpha Co,263,949
Lorino,65.50370135802315,-171.7047882897877,Source Electronics Venture Corporation,264,950
Lorino,65.50103776945384,-171.704288808854,Venture Federated Organization,265,951
Lorino,65.50273663790074,-171.7033813150344,Architecture Consulting LLC,266,952
Lorino,65.50251798497641,-171.70210353063067,Electronic Building Internet LLC,267,953
Lorino,65.50130712889997,-171.70452237429566,Bell Agency,268,954
Lorino,65.50391074547598,-171.70229431960271,Application Agency,269,955
Lorino,65.50459713189959,-171.70344315900115,Systems Net Provider International,270,956
Lorino,65.50154315064715,-171.70251663502506,Electronic Atlantic West Corporation,271,957
Lorino,65.50219653516358,-171.70199594136847,Digital Design Solutions International,272,958
Lorino,65.50108135585272,-171.70323847971264,Net Federated LLC,273,959
Lorino,65.50504513559501,-171.70464211018395,Vision Corporation,274,960
Lorino,65.50546382327067,-171.70469110568882,Innovation Vision Group,275,961
Lorino,65.50322565318896,-171.70517046038418,Contract Net Incorporated,276,962
Lorino,65.50431981955226,-171.70475672773674,Signal Organization,277,963
Lorino,65.50448942026456,-171.70337679310407,Industries West Organization,278,964
Lorino,65.5021079185624,-171.70516898533415,Medicine Group,279,965
Lorino,65.50350205971576,-171.70281533635185,Systems Design Incorporated,280,966
Lorino,65.50350331896558,-171.70527705582498,Construction Medicine Hardware LLC,281,967
Lorino,65.5040119941119,-171.70431906249598,Construction Direct Co,282,968
Lorino,65.5021704481191,-171.70495215647543,Analysis Industries Source Co,283,969
Lorino,65.50243624379789,-171.70600487025376,Bell Application LLC,284,970
Lorino,65.50142632670446,-171.70424380503258,Electronic Corporation,285,971
Lorino,65.50229843720469,-171.7025077073649,Application Group,286,972
Lorino,65.50135734302629,-171.70267549931577,Innovation Medicine Adventure Agency,287,973
Lorino,65.50191885293415,-171.70243782523477,Advanced Pacific Net Limited,288,974
Lorino,65.50438807125305,-171.7045124864598,Contract Solutions International,289,975
Lorino,65.50338283113675,-171.70279832799127,Hardware Digital Internet Limited,290,976
Lorino,65.50504162861391,-171.70354003187092,General People Network Co,291,977
Lorino,65.50141060969047,-171.70320951243937,Future LLC,292,978
Lorino,65.50268490276022,-171.7031217482047,Electronics Star Industries,293,979
Lorino,65.5045195401231,-171.7025126579326,Virtual West Advanced Industries,294,980
Lorino,65.50559039466788,-171.70447454124718,Power Graphics Co,295,981
Lorino,65.50325582697653,-171.70308756021274,Internet Corporation,296,982
Lorino,65.5015993187632,-171.70454299238438,Systems Consulting Graphics Agency,297,983
Lorino,65.50262201042234,-171.7053696121484,Hill Digital Star Limited,298,984
Lorino,65.50452769827034,-171.70514901002127,Alpha Agency,200,985
Lorino,65.50239819744989,-171.70594673917734,Frontier Vision Future Incorporated,201,986
Lorino,65.50541114025124,-171.7034471803503,Source Inc,202,987
Lorino,65.5049652440973,-171.70236746445735,Universal East Electronic Agency,203,988
Lorino,65.5043532987901,-171.70455340184267,Application Co,204,989
Lorino,65.50148313771571,-171.70268348972354,Solutions Max Digital Group,205,990
Lorino,65.50425776775761,-171.70178790312212,Omega Bell International,206,991
Lorino,65.50569220243788,-171.70396930512285,Graphics Network Hill LLC,207,992
Lorino,65.50282771091983,-171.7059855286864,Interactive Universal Studio LLC,208,993
Lorino,65.50318426631259,-171.70358573071448,Signal Vision Max Co,209,994
Lorino,65.50200492137719,-171.70222785258508,Galaxy Contract Inc,210,995
Lorino,65.501730489896,-171.70301415843937,Omega Direct International,211,996
Lorino,65.50393889132765,-171.70585117151177,East Star Limited,212,997
Lorino,65.5035912664966,-171.70318012739764,Contract Solutions Source Group,213,998
Lorino,65.50115984369579,-171.70352791772038,Consulting Corporation,214,999
Lorino,65.50233081315365,-171.705587117571,Adventure Systems Group,215,1000
Lorino,65.50179167410116,-171.70507401236833,Studio Net Virtual Group,216,1001
Lorino,65.50290113357799,-171.7060785828582,Medicine Resource Group,217,1002
Lorino,65.5028302680882,-171.70496780806585,Technology South Industries,218,1003
Lorino,65.50339273166766,-171.70325534352696,Future Incorporated,219,1004
Lorino,65.5028493949949,-171.7031110890636,Consulting Corporation,220,1005
Lorino,65.50543588670737,-171.70295981214187,Contract Systems Organization,221,1006
Lorino,65.50553434391875,-171.70458274912053,Network Direct LLC,222,1007
Lorino,65.50329181820823,-171.70208596065558,Speed Corporation,223,1008
Lorino,65.50138562154515,-171.70381494932678,Hill Agency,224,1009
Lorino,65.50386586262033,-171.70463086212047,Solutions Hill Direct Agency,225,1010
Lorino,65.50346943796248,-171.7055469696054,Research Net LLC,226,1011
Lorino,65.5010843854381,-171.70430113837466,Digital Vision Co,227,1012
Lorino,65.5022296582708,-171.70400358205617,West Design Power International,228,1013
Lorino,65.50281604378253,-171.70584405282747,Studio Co,229,1014
Lorino,65.50293674537537,-171.70212732585378,Resource Universal Federated Co,230,1015
Lorino,65.50098689804858,-171.70355117028458,Speed Incorporated,231,1016
Lorino,65.50494612139583,-171.70483556745702,Building East Speed Group,232,1017
Lorino,65.50341777858449,-171.7051396832385,Adventure Universal Inc,233,1018
Lorino,65.50514424492222,-171.7036340122517,Future Provider Omega Incorporated,234,1019
Lorino,65.50398986982528,-171.70470023734882,Max Solutions Group,235,1020
Lorino,65.50315376621884,-171.70255837654594,Architecture Technology Group,236,1021
Lorino,65.50255774964855,-171.70438917618955,Omega Industries,237,1022
Lorino,65.50353884638812,-171.70375505490202,Architecture Limited,238,1023
Lorino,65.50172923232395,-171.70507546884755,South Group,239,1024
Lorino,65.50301770457271,-171.70449622339237,Digital Limited,240,1025
Lorino,65.50220835097063,-171.70239025877453,Studio North Hardware Incorporated,241,1026
Lorino,65.50227944552118,-171.70549301602415,Design West Provider International,242,1027
Lorino,65.50231661042847,-171.702296821916,Analysis Technology Agency,243,1028
Lorino,65.50363769513281,-171.70342329590937,Frontier Telecom Agency,244,1029
Lorino,65.50338074550866,-171.70240111427864,Electronic Network LLC,245,1030
Lorino,65.50498901387121,-171.703773615075,Resource Architecture International,246,1031
Lorino,65.50497344407644,-171.70466056398035,Application LLC,247,1032
Lorino,65.50527861708008,-171.70498734631494,North Network Interactive Incorporated,248,1033
Lorino,65.50501750866589,-171.705262536041,Building Application Incorporated,249,1034
Lorino,65.50235675715,-171.70315526226764,Resource Vision International,250,1035
Lorino,65.50387179369274,-171.70302012935724,Adventure Consulting Corporation,251,1036
Lorino,65.50343198704435,-171.7017606001738,Omega Graphics LLC,252,1037
Lorino,65.50455690808133,-171.7036897377629,Graphics Advanced Net Inc,253,1038
Lorino,65.50156378047464,-171.70542879736328,Contract Construction Agency,254,1039
Lorino,65.50188744462699,-171.7023848764243,Digital Organization,255,1040
Lorino,65.50460956364157,-171.7036050542164,Frontier Industries Organization,256,1041
Lorino,65.50496965986767,-171.70419671591912,Future Signal Co,257,1042
Lorino,65.50158230332791,-171.70450079599613,Future Network Incorporated,258,1043
Lorino,65.50396471196352,-171.70181285176767,Electronic Vision Galaxy Co,259,1044
Lorino,65.50363327840938,-171.70308450050624,South Interactive Co,260,1045
Lorino,65.50282798791027,-171.7024933680144,Industries Software Power Incorporated,261,1046
Lorino,65.50242573235097,-171.70366491101913,Interactive East Organization,262,1047
Lorino,65.50520365727388,-171.70415455379782,Advanced Vision Net Incorporated,263,1048
Lorino,65.50191973098303,-171.70557174091113,Hardware Pacific Bell Organization,264,1049
Lorino,65.50277899260753,-171.702730492116,Design Studio Venture International,265,1050
Lorino,65.50544411791937,-171.70410515164042,Vision Contract Architecture Agency,266,1051
Lorino,65.50202953376672,-171.7020880644453,Electronics South Limited,267,1052
Lorino,65.50144842658362,-171.70326361386316,Star West Co,268,1053
Lorino,65.50264518309297,-171.70265488186746,Provider Star Corporation,269,1054
Lorino,65.5025578173209,-171.70210953289697,East Contract Corporation,270,1055
Lorino,65.50468317792028,-171.70297782227382,Analysis LLC,271,1056
Lorino,65.50273206786437,-171.70417964209364,Bell Organization,272,1057
Lorino,65.50541222351754,-171.70302265765056,Solutions Star Construction Agency,273,1058
Lorino,65.50422450510457,-171.70480521617137,Application Contract LLC,274,1059
Lorino,65.50122682026003,-171.70340244745148,Studio Star Limited,275,1060
Lorino,65.50365510069396,-171.70452144127725,Internet Omega Adventure Agency,276,1061
Lorino,65.50333600735549,-171.70173135331694,Federated People Limited,277,1062
Lorino,65.50509690576332,-171.70456583331583,West South Organization,278,1063
Lorino,65.50283219527677,-171.7061377690666,Design Pacific Agency,279,1064
Lorino,65.50367370396619,-171.7052835899255,Software Electronics Group,280,1065
Lorino,65.50333840203247,-171.70265111013703,Vision Omega General Incorporated,281,1066
Lorino,65.50383991686307,-171.70435554763708,Star LLC,282,1067
Lorino,65.50267491345942,-171.70393104523458,Building Speed Agency,283,1068
Lorino,65.50291689192855,-171.70385756226284,Galaxy Bell Agency,284,1069
Lorino,65.50302791261474,-171.70633201828846,Star Group,285,1070
Lorino,65.50304737244865,-171.70595508610555,Provider Vision South Organization,286,1071
Lorino,65.5033622613943,-171.70294712105755,Medicine North Future Group,287,1072
Lorino,65.5028596250063,-171.70434470418778,Software Telecom Source Co,288,1073
Lorino,65.50208633885302,-171.70224603622466,Max Limited,289,1074
Lorino,65.50311523911174,-171.70380904585048,Direct Electronic International,290,1075
Lorino,65.50334972791738,-171.7026219094691,Pacific Network Inc,291,1076
Lorino,65.50286476014338,-171.7042416513606,Virtual Medicine LLC,292,1077
Lorino,65.50446010297928,-171.70269269197175,Omega Inc,293,1078
Lorino,65.50268126629554,-171.70195268075065,Telecom Internet Limited,294,1079
Lorino,65.50238068415365,-171.70495580106174,Digital Incorporated,295,1080
Lorino,65.5011638934861,-171.70439526974855,People Solutions East LLC,296,1081
Lorino,65.50497879440819,-171.70514401125197,North Limited,297,1082
Lorino,65.50186874849916,-171.70237391930002,Technology Industries,298,1083
Lorino,65.50398155351347,-171.7041277549639,Pacific Galaxy Architecture Agency,200,1084
Lorino,65.50292736590002,-171.7052744980254,Data LLC,201,1085
Lorino,65.50236442474684,-171.70191105440398,Vision Omega General Incorporated,202,1086
Lorino,65.50322543434291,-171.7031304475314,Net Resource LLC,203,1087
Lorino,65.50272727387306,-171.70491320871713,Provider International,204,1088
Lorino,65.50491963827209,-171.7046048268476,Universal Group,205,1089
Lorino,65.50208035736533,-171.70277862558223,Internet West Incorporated,206,1090
Lorino,65.50178879491231,-171.70245352604312,Technology Inc,207,1091
Lorino,65.5020359933411,-171.70368614914437,Vision Agency,208,1092
Lorino,65.50474097618535,-171.70541215096415,Advanced Electronics Electronic International,209,1093
Lorino,65.50297647949343,-171.7044517389528,Software Limited,210,1094
Lorino,65.50374011256169,-171.70557274242992,Software Construction Group,211,1095
Lorino,65.50291067139018,-171.70542927591464,Industries International,212,1096
Lorino,65.50275878938211,-171.70459859231397,Adventure Digital Group,213,1097
Lorino,65.50301968455489,-171.70382667189344,Graphics Solutions Digital Industries,214,1098
Lorino,65.5024860546572,-171.70177645275086,Interactive Electronic Contract Limited,215,1099
Lorino,65.50205268503873,-171.70345354500827,Advanced Hardware Group,216,1100
Lorino,65.50549069363458,-171.7044009248579,Power General Studio Organization,217,1101
Lorino,65.50351713314282,-171.70192151149934,Federated Alpha Corporation,218,1102
Lorino,65.50373910331707,-171.704812648769,Future West Co,219,1103
Lorino,65.50463730498109,-171.70366002383844,Consulting Industries,220,1104
Lorino,65.50235168285222,-171.7035949608119,Alpha Pacific Provider Co,221,1105
Lorino,65.5030079179428,-171.70191567838867,Network Electronic Data Industries,222,1106
Lorino,65.50343798851273,-171.70226723517226,Vision International,223,1107
Lorino,65.50558498740868,-171.70470164500443,Net Federated Future Industries,224,1108
Lorino,65.50254475411427,-171.70517840921374,People Digital Internet Corporation,225,1109
Lorino,65.50261954269524,-171.7034438449823,Medicine Design Source Organization,226,1110
Lorino,65.50168293243507,-171.70331467442588,Advanced Organization,227,1111
Lorino,65.50214537212631,-171.70588243212921,Provider Co,228,1112
Lorino,65.50445539623965,-171.70548023275217,Solutions Electronics Group,229,1113
Lorino,65.50526394001906,-171.7033037448751,Medicine Speed LLC,230,1114
Lorino,65.50510981328692,-171.7025157947774,Star Virtual Co,231,1115
Lorino,65.50275970316514,-171.705482937375,Contract Frontier Power Co,232,1116
Lorino,65.50422778934195,-171.70309459975203,East Incorporated,233,1117
Lorino,65.50515637408117,-171.70383895808126,Electronics Bell Federated Organization,234,1118
Lorino,65.50200392289776,-171.70226780391698,Innovation Resource General Co,235,1119
Lorino,65.50405419761631,-171.70320854483646,Data Inc,236,1120
Lorino,65.5045667247866,-171.70466633777974,Net Hill Electronics Inc,237,1121
Lorino,65.50555104860514,-171.7044372068708,Hill Federated Inc,238,1122
Lorino,65.50380869672856,-171.7029464998853,Contract Power Corporation,239,1123
Lorino,65.50481104157255,-171.70252929099374,Star Agency,240,1124
Lorino,65.50455941534996,-171.7037643237001,Signal Systems LLC,241,1125
Lorino,65.50494146915959,-171.70343316956325,Studio Universal Data Industries,242,1126
Lorino,65.50241639033005,-171.70431135008755,Internet Technology Organization,243,1127
Lorino,65.50104428504444,-171.70420307120983,Digital Software Vision International,244,1128
Lorino,65.50258933722995,-171.70295390986388,Advanced Limited,245,1129
Lorino,65.50109756181135,-171.7045367197942,People Inc,246,1130
Lorino,65.50538718481782,-171.7036252796569,Industries Alpha Contract Industries,247,1131
Lorino,65.50382578812287,-171.70442721609834,Data Incorporated,248,1132
Lorino,65.50325252845984,-171.7034078289111,Solutions Co,249,1133
Lorino,65.50560067733537,-171.70371049801645,Solutions General West Corporation,250,1134
Lorino,65.50144851489044,-171.70376728668313,Star West Group,251,1135
Lorino,65.50196766865162,-171.70440575518435,North Network Hill Agency,252,1136
Lorino,65.50277797228317,-171.7055458462471,South Technology Pacific Co,253,1137
Lorino,65.50362253031469,-171.70442376872725,Adventure Max Group,254,1138
Lorino,65.50280696463075,-171.70213378818602,Speed Omega Inc,255,1139
Lorino,65.50390016882123,-171.70303228644792,Studio Application Inc,256,1140
Lorino,65.50143960278275,-171.702594038738,Star Net Advanced Inc,257,1141
Lorino,65.50305270364449,-171.7027425110048,Adventure North Incorporated,258,1142
Lorino,65.50394856878883,-171.7052745957992,Vision Virtual Systems Industries,259,1143
Lorino,65.50210826537368,-171.70470518662074,Net Studio West Co,260,1144
Lorino,65.50306123949792,-171.70493164949184,Power Group,261,1145
Lorino,65.50252211293248,-171.70568032931624,Star Technology Network Inc,262,1146
Lorino,65.50130816708597,-171.70407485310307,Advanced Industries,263,1147
Lorino,65.50473649091568,-171.70550438801277,Hill Medicine Co,264,1148
Lorino,65.50371964647852,-171.70612050458988,Medicine Co,265,1149
Lorino,65.50419168539239,-171.70173164729118,Pacific Vision LLC,266,1150
Lorino,65.50265447694517,-171.70453042929697,West Vision Resource Limited,267,1151
Lorino,65.50510110205005,-171.70366917334124,Vision Atlantic LLC,268,1152
Lorino,65.50244339657888,-171.7045552498676,Research East Systems Limited,269,1153
Lorino,65.50173914241925,-171.70254908570692,Star Vision West International,270,1154
Lorino,65.50255022085057,-171.7042722362803,Vision Corporation,271,1155
Lorino,65.50502884436983,-171.70323811797442,Hill Electronics Building Group,272,1156
Lorino,65.50258433411692,-171.7042203893356,Frontier Co,273,1157
Lorino,65.50542441836333,-171.7043949712751,Electronic Agency,274,1158
Lorino,65.50543286299329,-171.70422906033744,Star Studio Co,275,1159
Lorino,65.50284290021202,-171.70214982376055,Software Electronic Construction Industries,276,1160
Lorino,65.50500701350525,-171.70392967282,Bell Galaxy Software Limited,277,1161
Lorino,65.50416680669703,-171.70407190837832,Technology International,278,1162
Lorino,65.5041823799529,-171.7053128837292,Analysis Inc,279,1163
Lorino,65.50463408532303,-171.70414256444437,Systems Power Contract Organization,280,1164
Lorino,65.5024618489774,-171.70272743543177,Atlantic Co,281,1165
Lorino,65.50366013354657,-171.70417518114584,People Building Frontier Inc,282,1166
Lorino,65.50204995981812,-171.7024315898198,Vision North Agency,283,1167
Lorino,65.5019889411567,-171.70304563783856,Adventure Max Contract International,284,1168
Lorino,65.50479297792837,-171.70226101376159,Systems Max Limited,285,1169
Lorino,65.50353787933444,-171.7019284905131,Contract Analysis Direct Inc,286,1170
Lorino,65.50509211441486,-171.7052182275882,Solutions Group,287,1171
Lorino,65.50133160466244,-171.70359842553887,Interactive West Source Industries,288,1172
Lorino,65.50261099247356,-171.70192927414533,Vision Atlantic Incorporated,289,1173
Lorino,65.50174022082057,-171.70267923466957,Net Group,290,1174
Lorino,65.50098412441743,-171.70448367482086,Speed North Interactive Organization,291,1175
Lorino,65.50211298436993,-171.70345493805854,Federated Incorporated,292,1176
Lorino,65.50301512550371,-171.70481097843037,West Industries,293,1177
Lorino,65.50139805035282,-171.70306315032934,Industries Industries,294,1178
Lorino,65.50508119529712,-171.70427248175008,Hill Inc,295,1179
Lorino,65.50235977327951,-171.7059023843341,Federated Medicine Galaxy International,296,1180
Lorino,65.50224523850159,-171.70372327136042,Galaxy Speed LLC,297,1181
Lorino,65.50240555276154,-171.7053569337226,Analysis Inc,298,1182
Lorino,65.50397184323576,-171.70275428101715,Future Pacific LLC,200,1183
Lorino,65.50366425102695,-171.70304203183304,Application Future Signal Industries,201,1184
Lorino,65.50217012059362,-171.70511973670872,Provider Limited,202,1185
Lorino,65.50473578559816,-171.70286099352126,Network Solutions Medicine Incorporated,203,1186
Lorino,65.50299350900706,-171.70203816176033,Federated Corporation,204,1187
Lorino,65.50305115903147,-171.7061039954443,Venture Federated Studio Inc,205,1188
Lorino,65.5031908161261,-171.7020003294722,Design Electronic Interactive Limited,206,1189
Lorino,65.50352716721481,-171.70317365226404,Frontier Research Incorporated,207,1190
Lorino,65.50381552951555,-171.70228132375067,North Research Federated Agency,208,1191
Lorino,65.50431487775536,-171.7048776119883,Consulting Max Limited,209,1192
Lorino,65.50498703466492,-171.70310695368678,East Federated Industries,210,1193
Lorino,65.50115369178096,-171.7034382266654,West Organization,211,1194
Lorino,65.50283882620609,-171.70630375064275,Technology Agency,212,1195
Lorino,65.50333578893441,-171.70583693938624,Medicine Source Design Organization,213,1196
Lorino,65.50157975194827,-171.70294798667706,Design Organization,214,1197
Lorino,65.50194033500344,-171.7042598416929,Universal Hardware Organization,215,1198
Lorino,65.50183558427553,-171.70338870459574,Industries Incorporated,216,1199
Lorino,65.50353516891438,-171.70470904266128,Vision Technology Agency,217,1200
Lorino,65.50281355663614,-171.70233836268233,East Medicine Building International,218,1201
Lorino,65.50267786647598,-171.7034098520941,Alpha Adventure LLC,219,1202
Lorino,65.50423872161845,-171.7042041522334,Software Research Alpha Co,220,1203
Lorino,65.50484968472827,-171.70453719095673,Internet Innovation Corporation,221,1204
Lorino,65.50490059344332,-171.70368306397256,Galaxy Omega Adventure Inc,222,1205
Lorino,65.50331999662528,-171.70345434016562,Network Pacific Agency,223,1206
Lorino,65.50330522527945,-171.70321053694084,Consulting South Limited,224,1207
Lorino,65.50473826526658,-171.70578177766103,Universal General Solutions International,225,1208
Lorino,65.5023680063248,-171.7057473162693,Architecture Research Construction International,226,1209
Lorino,65.50413350899089,-171.7027745625054,Application Incorporated,227,1210
Lorino,65.50330708780969,-171.70312824463298,Net LLC,228,1211
Lorino,65.50395088171426,-171.70280247171152,Telecom LLC,229,1212
Lorino,65.50206181591484,-171.70534836300553,General People Inc,230,1213
Lorino,65.50181870897987,-171.70510449751802,Resource Industries,231,1214
Lorino,65.50383239416391,-171.70275062534026,Solutions Industries,232,1215
Lorino,65.50372371925414,-171.70270379964148,Internet Star Alpha Agency,233,1216
Lorino,65.50350098978,-171.7060905067857,Star Power Pacific Corporation,234,1217
Lorino,65.50368292184974,-171.7045286723404,Venture International,235,1218
Lorino,65.50272080140327,-171.70253116287958,Architecture Vision Resource Incorporated,236,1219
Lorino,65.50413847523654,-171.70357375092317,Industries East Co,237,1220
Lorino,65.50487955645704,-171.70407130254125,Alpha West Incorporated,238,1221
Lorino,65.50320221081999,-171.7039628596041,Galaxy Future Hill Limited,239,1222
Lorino,65.50489007166377,-171.70439127780764,Software Agency,240,1223
Lorino,65.50308174996177,-171.7052418952941,Technology International,241,1224
Lorino,65.50506382472335,-171.70379301735483,Architecture Contract Software International,242,1225
Lorino,65.50430044999996,-171.70362042857712,Galaxy Omega Corporation,243,1226
Lorino,65.5018825624439,-171.70549215714462,South Frontier Star Group,244,1227
Lorino,65.50465219704087,-171.70286278901511,Omega Net Agency,245,1228
Lorino,65.5041176210189,-171.70229347822135,Studio Co,246,1229
Lorino,65.50329854853531,-171.7027857350213,Atlantic Advanced Adventure Corporation,247,1230
Lorino,65.50482249589336,-171.70344761758687,Pacific Limited,248,1231
Lorino,65.50134707747273,-171.7042049617023,Direct Consulting Provider Organization,249,1232
Lorino,65.50319674895803,-171.70585662961045,People Industries,250,1233
Lorino,65.50526329913319,-171.7030414451579,Architecture Atlantic Industries,251,1234
Lorino,65.5023338128169,-171.7019752319003,Contract Network LLC,252,1235
Lorino,65.50198990715586,-171.7057978774733,Atlantic Systems Signal Organization,253,1236
Lorino,65.50242448607784,-171.705231651965,Innovation Group,254,1237
Lorino,65.5042522344155,-171.70596318863863,Network Systems Organization,255,1238
Lorino,65.50392882684608,-171.70435410516748,Power Federated Signal Group,256,1239
Lorino,65.50229872242672,-171.70531907335516,Electronics Atlantic LLC,257,1240
Lorino,65.50220573263935,-171.70412933153196,Alpha Venture Star Inc,258,1241
Lorino,65.50459175790373,-171.70410454668553,Power North Industries,259,1242
Lorino,65.50333367301383,-171.7030247364428,Building Systems Internet LLC,260,1243
Lorino,65.50471151365751,-171.705809852376,Innovation Telecom Corporation,261,1244
Lorino,65.50365408903163,-171.70354165082614,Star LLC,262,1245
Lorino,65.50260776828141,-171.7021663149508,North Net Solutions Inc,263,1246
Lorino,65.50304990212439,-171.70297449608998,Vision Co,264,1247
Lorino,65.50488204940251,-171.70528319265327,Star International,265,1248
Lorino,65.5019303231486,-171.7051027999611,Research Industries,266,1249
Lorino,65.50529083826308,-171.70460054680757,People Studio Software Group,267,1250
